EPA_ID	NAME	ADDRESS	CITY	STATE	ZIP	COUNTY	FIPS	LONGITUDE	LATITUDE	NPL_STATUS	STATUSDATE	HRS_SCORE
AK4170024323	ADAK NAVAL AIR STATION	ADAK IS	ADAK	AK	99546	ALEUTIANS WEST CENSUS ARE	2013	-176.6525	51.8775	Final	5/31/1994	51.37
AK1570028646	EIELSON AIR FORCE BASE	HIGHWAY 2 - 16 MI SE OF FAIRBANKS	FAIRBANKS	AK	99702	FAIRBANKS NORTH STAR	2090	-147.0492	64.6714	Final	11/21/1989	48.14
AK8570028649	ELMENDORF AIR FORCE BASE	N BOUNDRY OF CITY LIMITS	ANCHORAGE	AK	99506	ANCHORAGE BOROUGH	2090	-149.7917	61.2541	Final	8/30/1990	45.91
AK6214522157	FORT RICHARDSON (USARMY)		ANCHORAGE	AK	99505	ANCHORAGE BOROUGH	2090	-149.7	61.2583	Final	5/31/1994	50
AK6210022426	FORT WAINWRIGHT	"RICHARDSON HWY, SE OF CY"	FORT WAINWRIGHT	AK	99703	FAIRBANKS NORTH STAR BORO	2090	-147.6106	64.823	Final	8/30/1990	42.4
AL6210020008	ALABAMA ARMY AMMUNITION PLANT	STATE HWY 235	CHILDERSBURG	AL	35044	TALLADEGA	1121	-86.3268	33.3381	Final	7/22/1987	36.83
ALD981868466	AMERICAN BRASS INC.	HIGHWAY 134 WEST	HEADLAND	AL	36345	HENRY	1067	-85.4041	31.325	Final	5/10/1999	55.61
AL3210020027	ANNISTON ARMY DEPOT (SOUTHEAST INDUSTRIAL AREA)	OFF AL HWY 202	ANNISTON	AL	36253	CALHOUN	1015	-85.9694	33.6594	Final	3/13/1989	51.91
ALD001221902	CIBA-GEIGY CORP. (MCINTOSH PLANT)	OFF HWY 43	MCINTOSH	AL	36553	WASHINGTON	1129	-87.9955	31.279	Final	9/21/1984	53.42
ARD084930148	"ARKWOOD, INC."	S. OF CITY @ CRICKETT RR JUNC.	OMAHA	AR	72662	BOONE	5009	-93.1964	36.445	Final	3/31/1989	28.95
AZD008399263	APACHE POWDER CO.	1436 S APACHE POWDER RD	SAINT DAVID	AZ	85630	COCHISE	4003	-110.24	31.88	Final	8/30/1990	39.09
AZD980735666	HASSAYAMPA LANDFILL	OLD WICKENBURG RD	HASSAYAMPA	AZ	85343	MARICOPA	4013	-112.7483	33.3683	Final	7/22/1987	42.79
AZD980695969	INDIAN BEND WASH AREA	MCDOWELL RD & HAYDEN	SCOTTSDALE	AZ	85253	MARICOPA	4013	-111.9083	33.4666	Final	9/8/1983	42.24
CAD048634059	"ADVANCED MICRO DEVICES, INC."	901 THOMPSON PL	SUNNYVALE	CA	94086	SANTA CLARA	6085	-122.0086	37.3825	Final	6/10/1986	37.93
CAT080034234	"ADVANCED MICRO DEVICES, INC. (BUILDING 915)"	915 DEGUIGNE	SUNNYVALE	CA	94086	SANTA CLARA	6085	-122.0066	37.3868	Final	8/30/1990	31.94
CAD980358832	AEROJET GENERAL CORP.	HWY US 50 & AEROJET RD	RANCHO CORDOVA	CA	95670	SACRAMENTO	6067	-121.2	38.6083	Final	9/8/1983	54.63
CA2170023236	ALAMEDA NAVAL AIR STATION	W END CITY OF ALAMEDA	ALAMEDA	CA	94501	ALAMEDA	6001	-122.33	37.7888	Final	7/22/1999	50
CAD098229214	ALARK HARD CHROME	2777 MAIN STREET	RIVERSIDE	CA	92501	RIVERSIDE	6065	-117.3671	33.9918	Final	12/1/2000	50.5
CA0001576081	AMCO CHEMICAL	1414 THIRD STREET	OAKLAND	CA	94607	ALAMEDA	6001	-122.2937	37.8025	Final	9/29/2003	50
CAD042728840	APPLIED MATERIALS	3050 BOWERS AVE	SANTA CLARA	CA	95051	SANTA CLARA	6085	-121.9777	37.3777	Final	7/22/1987	31.94
CAD980496863	ATLAS ASBESTOS MINE	LOS GATOS CREEK RD NW OF FRESNO	COALINGA	CA	93210	FRESNO	6019	-120.5867	36.3216	Final	9/21/1984	45.55
CAN000905945	B.F. GOODRICH	3196 NORTH LOCUST AVENUE	RIALTO	CA	92377	SAN BERNARDINO	6071	-117.4142	34.1542	Final	9/23/2009	50
CA8170024261	BARSTOW MARINE CORPS LOGISTICS BASE	MARINE CORPS LOGIS BASE- NEBO	BARSTOW	CA	92311	SAN BERNARDINO	6071	-116.9389	34.8783	Final	11/21/1989	37.93
CAD048645444	BECKMAN INSTRUMENTS (PORTERVILLE PLANT)	167 W POPLAR AVE	PORTERVILLE	CA	93257	TULARE	6107	-119.0201	36.049	Final	6/10/1986	34.21
CAD052384021	"BROWN & BRYANT, INC. (ARVIN PLANT)"	600 S DERBY RD	ARVIN	CA	93203	KERN	6029	-118.822	35.203	Final	10/4/1989	53.36
CA2170023533	CAMP PENDLETON MARINE CORPS BASE	CAMP PENDLETON MARINE BASE	CAMP PENDLETON	CA	92055	SAN DIEGO	6073	-117.3408	33.3066	Final	11/21/1989	33.79
CAD020748125	CASMALIA RESOURCES	NTU RD-539 SAN YSIDRO RD	CASMALIA	CA	93429	SANTA BARBARA	6083	-120.5443	34.8631	Final	9/13/2001	30
CA3570024551	CASTLE AIR FORCE BASE (6 AREAS)	CASTLE AFB	MERCED	CA	95342	MERCED	6047	-120.5636	37.3673	Final	7/22/1987	37.93
CAD063015887	COAST WOOD PRESERVING	PLANT RD & TAYLOR DR	UKIAH	CA	95482	MENDOCINO	6045	-123.193	39.1125	Final	9/8/1983	44.73
CA7170024528	CONCORD NAVAL WEAPONS STATION	PORT CHICAGO HWY	CONCORD	CA	94520	CONTRA COSTA	6013	-122	38.0494	Final	12/16/1994	50
CAD055753370	COOPER DRUM CO.	9316 ATLANTIC AVE	SOUTH GATE	CA	90280	LOS ANGELES	6037	-118.1796	33.9469	Final	6/14/2001	50
CAD980498455	CRAZY HORSE SANITARY LANDFILL	350 CRAZY HORSE CANYON ROAD	SALINAS	CA	93907	MONTEREY	6053	-121.6186	36.8026	Final	8/30/1990	37.93
CAD009212838	"CTS PRINTEX, INC."	PLYMOUTH & COLONY STS	MOUNTAIN VIEW	CA	94043	SANTA CLARA	6085	-122.0872	37.4165	Final	2/21/1990	33.62
CAD029544731	DEL AMO	DEL AMO BLVD AND VERMONT AVE	LOS ANGELES	CA	90006	LOS ANGELES	6037	-118.2894	33.8466	Final	9/5/2002	47.12
CA1570024504	EDWARDS AIR FORCE BASE	AFFTC EDWARDS AFB	EDWARDS AFB	CA	93524	KERN	6029	-117.8857	34.9494	Final	8/30/1990	33.62
CA6170023208	EL TORO MARINE CORPS AIR STATION	EL TORO MARINE CORPS AIR STA	EL TORO	CA	92709	ORANGE	6059	-117.7176	33.6766	Final	2/21/1990	37.43
CAD095989778	FAIRCHILD SEMICONDUCTOR CORP. (MOUNTAIN VIEW PLANT)	464 ELLIS ST	MOUNTAIN VIEW	CA	94042	SANTA CLARA	6085	-122.0542	37.4012	Final	2/11/1991	31.94
CAD097012298	FAIRCHILD SEMICONDUCTOR CORP. (SOUTH SAN JOSE PLANT)	101 BERNAL ROAD	SAN JOSE	CA	95119	SANTA CLARA	6085	-121.7748	37.2326	Final	10/4/1989	44.46
CA7210020676	FORT ORD	FORMER ARMY BASE FORT ORD	MARINA	CA	93933	MONTEREY	6053	-121.75	36.625	Final	2/21/1990	42.24
CAD980636914	FRESNO MUNICIPAL SANITARY LANDFILL	SW COR OF JENSEN & W AVE	FRESNO	CA	93706	FRESNO	6019	-119.8261	36.7041	Final	10/4/1989	35.57
CAD071530380	FRONTIER FERTILIZER	COUNTY ROAD 32A	DAVIS	CA	95618	YOLO	6113	-121.6733	38.553	Final	5/31/1994	35.04
CA2570024453	GEORGE AIR FORCE BASE	AIR BASE RD- NR ST RTE 395	VICTORVILLE	CA	92392	SAN BERNARDINO	6071	-117.3833	34.595	Final	2/21/1990	33.62
CAD009688052	HALACO ENGINEERING COMPANY	6200 PERKINS	OXNARD	CA	93033	VENTURA	6111	-119.1777	34.1407	Final	9/19/2007	51.94
CAD980884209	HEWLETT-PACKARD (620-640 PAGE MILL ROAD)	620 - 640 PAGE MILL RD.	PALO ALTO	CA	94304	SANTA CLARA	6085	-122.1434	37.4214	Final	2/21/1990	29.76
CO7570090038	AIR FORCE PLANT PJKS	12275 SOUTH HIGHWAY 75	LITTLETON	CO	80127	JEFFERSON	8059	-105.1337	39.5142	Final	11/21/1989	42.93
COD000110254	BRODERICK WOOD PRODUCTS	5600 HURON ST	DENVER	CO	80221	ADAMS	8001	-104.9989	39.8148	Final	9/21/1984	35.13
COD980717938	CALIFORNIA GULCH	S OF CY-YAK TUNNEL DOWNSTREAM	LEADVILLE	CO	80461	LAKE	8065	-106.2692	39.2361	Final	9/8/1983	55.84
COD981551427	CAPTAIN JACK MILL	"T1N R73 W, SE 1/4 SEC. 12"	WARD	CO	80481	BOULDER	8013	-105.5036	40.0558	Final	9/29/2003	50.56
COD980717557	"CENTRAL CITY, CLEAR CREEK"	NEAR TOWN	IDAHO SPRINGS	CO	80452	CLEAR CREEK	8019	-105.5	39.75	Final	9/8/1983	51.39
COD007431620	CHEMICAL SALES CO.	4661 MONACO ST.	DENVER	CO	80216	DENVER	8031	-104.9136	39.7808	Final	8/30/1990	37.93
COD980716955	DENVER RADIUM SITE	VARIOUS PLACES IN DENVER	DENVER	CO	80204	DENVER	8031	-105	39.7166	Final	9/8/1983	44.11
COD081961518	EAGLE MINE	W OF US HWY 24	MINTURN	CO	81645	EAGLE	8037	-106.3917	39.5333	Final	6/10/1986	47.19
CTD980732333	BARKHAMSTED-NEW HARTFORD LANDFILL	ROUTE 44	BARKHAMSTED	CT	6063	LITCHFIELD	9005	-73.0472	41.9805	Final	10/4/1989	38.05
CTD072122062	BEACON HEIGHTS LANDFILL	BLACKBERRY HILL ROAD	BEACON FALLS	CT	6403	NEW HAVEN	9009	-73.0352	41.4319	Final	9/8/1983	46.77
CTD001452093	DURHAM MEADOWS	124 MAIN ST	DURHAM	CT	6422	MIDDLESEX	9007	-72.6813	41.4811	Final	10/4/1989	33.94
CTD108960972	GALLUP'S QUARRY	ROUTE 12	PLAINFIELD	CT	6374	WINDHAM	9015	-71.9241	41.6652	Final	10/4/1989	46.29
DED980494496	ARMY CREEK LANDFILL	RTE 13 + RTE 40	NEW CASTLE	DE	19720	NEW CASTLE	10003	-75.6083	39.653	Final	9/8/1983	69.92
DED980714141	"CHEM-SOLV, INC."	176A N DUPONT HIGHWAY	DOVER	DE	199014264	KENT	10001	-75.5764	39.2216	Final	8/30/1990	37.93
DED980704860	COKER'S SANITATION SERVICE LANDFILLS	COUNTY RTE 152	CHESWOLD	DE	19936	KENT	10001	-75.6113	39.2272	Final	7/22/1987	52.15
DED980551667	DELAWARE CITY PVC PLANT	RTE 13 & SCHOOL HOUSE RD	DELAWARE CITY	DE	19706	NEW CASTLE	10003	-75.6494	39.5861	Final	9/8/1983	30.55
DED000605972	DELAWARE SAND & GRAVEL LANDFILL	229 GRANTHAM LANE	NEW CASTLE	DE	19720	NEW CASTLE	10003	-75.6027	39.6513	Final	9/8/1983	46.6
DE8570024010	DOVER AIR FORCE BASE	RTE 113	DOVER	DE	19901	KENT	10001	-75.4666	39.1277	Final	3/13/1989	35.89
DED980693550	DOVER GAS LIGHT CO.	NEW ST	DOVER	DE	19904	KENT	10001	-75.5277	39.1558	Final	10/4/1989	35.57
DED980555122	"E.I. DU PONT DE NEMOURS & CO., INC. (NEWPORT PIGMENT PLANT LANDFILL)"	JAMES & WATER STS	NEWPORT	DE	19804	NEW CASTLE	10003	-75.6091	39.7083	Final	2/21/1990	51.91
DED980830954	HALBY CHEMICAL CO.	600 TERMINAL AVE	NEW CASTLE	DE	19720	NEW CASTLE	10003	-75.5372	39.7186	Final	6/10/1986	30.9
DED980713093	"HARVEY & KNOTT DRUM, INC."	OLD COUNTY RD	KIRKWOOD	DE	19708	NEW CASTLE	10003	-75.7708	39.5733	Final	9/8/1983	30.77
FLD980221857	AGRICO CHEMICAL CO.	118 E FAIRFIELD DR @ I-110	PENSACOLA	FL	32505	ESCAMBIA	12033	-87.2256	30.4512	Final	10/4/1989	44.98
FLD004145140	AIRCO PLATING CO.	3636 NW 46TH STREET	MIAMI	FL	33142	MIAMI-DADE	12086	-80.2559	25.8152	Final	2/21/1990	42.47
FLD012978862	ALARIC AREA GW PLUME	NEAR N. 71ST STREET AND 14TH AVENUE	TAMPA	FL	33619	HILLSBOROUGH	12057	-82.3751	27.964	Final	12/1/2000	41.91
FLD008161994	"AMERICAN CREOSOTE WORKS, INC. (PENSACOLA PLANT)"	701 S J ST	PENSACOLA	FL	32501	ESCAMBIA	12033	-87.2366	30.4047	Final	9/8/1983	58.41
FLD981014368	"ANODYNE, INC."	1270 NW 165 STREET	NORTH MIAMI BEACH	FL	33169	MIAMI-DADE	12086	-80.2215	25.9231	Final	2/21/1990	31.03
FLSFN0406909	ARKLA TERRA PROPERTY	11706 US HWY 301	THONOTOSASSA	FL	33592	HILLSBOROUGH	12057	-82.3175	28.0577	Final	4/9/2009	50
FLD004574190	"B&B CHEMICAL CO., INC."	875 W 20TH ST	HIALEAH	FL	33010	MIAMI-DADE	12086	-80.3001	25.8395	Final	8/30/1990	35.35
FLD980709356	CABOT/KOPPERS	MAIN ST & 23RD AVE	GAINESVILLE	FL	32601	ALACHUA	12001	-82.323	29.675	Final	9/21/1984	36.69
FLD004064242	CHEVRON CHEMICAL CO. (ORTHO DIVISION)	3100 ORANGE BLOSSOM TRAIL	ORLANDO	FL	32804	ORANGE	12095	-81.4088	28.5788	Final	5/31/1994	50
FLD055945653	"CITY INDUSTRIES, INC."	3920 FORSYTH RD	ORLANDO	FL	32807	ORANGE	12095	-81.3	28.6013	Final	10/4/1989	32
FLD991279894	COLEMAN-EVANS WOOD PRESERVING CO.	101 CELERY ST	WHITEHOUSE	FL	322201806	DUVAL	12031	-81.8427	30.3138	Final	9/8/1983	46.18
FLD008168346	ESCAMBIA WOOD - PENSACOLA	3910 N PALAFOX ST.	PENSACOLA	FL	32522	ESCAMBIA	12033	-87.2317	30.4553	Final	12/16/1994	50
FLD083111005	FLASH CLEANERS	4131 NORTH FEDERAL HIGHWAY	Pompano Beach	FL	33064	BROWARD	12011	-80.0967	26.2825	Final	9/3/2008	50
FLD984184127	FLORIDA PETROLEUM REPROCESSORS	3211 S.W. 50TH AVENUE	FORT LAUDERDALE	FL	33314	BROWARD	12011	-80.2155	26.0819	Final	3/6/1998	50
FLD050432251	FLORIDA STEEL CORP.	SR 710	INDIANTOWN	FL	33956	MARTIN	12085	-80.5061	27.0411	Final	9/8/1983	45.92
FLD000602334	HARRIS CORP. (PALM BAY PLANT)	OFF PALM BAY BLVD	PALM BAY	FL	32905	BREVARD	12009	-80.6013	28.0302	Final	7/22/1987	35.57
FLD053502696	HELENA CHEMICAL CO. (TAMPA PLANT)	2405 N 71TH ST	TAMPA	FL	33619	HILLSBOROUGH	12057	-82.3748	27.9639	Final	10/14/1992	30.19
FLD980709802	HIPPS ROAD LANDFILL	HIPPS RD	DUVAL COUNTY	FL	32222	DUVAL	12031	-81.8055	30.2169	Final	9/21/1984	31.94
FLD004119681	HOLLINGSWORTH SOLDERLESS TERMINAL	700 NW 57TH PLACE	FORT LAUDERDALE	FL	33309	BROWARD	12011	-80.1522	26.1983	Final	9/8/1983	44.53
FL7570024037	HOMESTEAD AIR FORCE BASE	FLORIDA TURNPIKE EAST	HOMESTEAD AIR FORCE BASE	FL	330391299	MIAMI-DADE	12086	-80.3969	25.4894	Final	8/30/1990	42.4
GAD033582461	ALTERNATE ENERGY RESOURCES INC	2736 WALDEN DR	AUGUSTA	GA	30904	RICHMOND	13245	-82.0424	33.4556	Final	4/19/2006	50
GAD981024466	BRUNSWICK WOOD PRESERVING	PERRY LANE ROAD	BRUNSWICK	GA	31520	GLYNN	13127	-81.528	31.2422	Final	4/1/1997	54.49
GAD008212409	CAMILLA WOOD PRESERVING COMPANY	131 EAST BENNETT STREET	CAMILLA	GA	31730	MITCHELL	13205	-84.2033	31.2225	Final	7/28/1998	50
GAD990741092	DIAMOND SHAMROCK CORP. LANDFILL	W. GIRARD AVENUE	CEDARTOWN	GA	30125	POLK	13233	-85.2717	34.0207	Final	8/30/1990	35.6
GAD990855074	FIRESTONE TIRE & RUBBER CO. (ALBANY PLANT)	3300 SYLVESTER RD	ALBANY	GA	31701	DOUGHERTY	13095	-84.0538	31.5658	Final	10/4/1989	30.08
GAD980556906	HERCULES 009 LANDFILL	BENEDICT RD & ROUTE 25	BRUNSWICK	GA	31521	GLYNN	13127	-81.4858	31.2049	Final	9/21/1984	52.58
HID980637631	DEL MONTE CORP. (OAHU PLANTATION)	94-1000 KUNIA RD	KUNIA	HI	96759	HONOLULU	15003	-158.0666	21.4583	Final	12/16/1994	50
IAD980687933	DES MOINES TCE	SEC 8 & 9 T78N R24W	DES MOINES	IA	50309	POLK	19153	-93.636	41.5781	Final	9/8/1983	42.28
IAD005279039	"ELECTRO-COATINGS, INC."	911 SHAVER RD NE	CEDAR RAPIDS	IA	52402	LINN	19113	-91.6713	41.9953	Final	10/4/1989	42.24
IAD981124167	FAIRFIELD COAL GASIFICATION PLANT	101 S 7TH ST	FAIRFIELD	IA	52556	JEFFERSON	19101	-91.9724	41.0062	Final	8/30/1990	38.05
IDD048340921	BUNKER HILL MINING & METALLURGICAL COMPLEX		SMELTERVILLE	ID	83837	SHOSHONE	16079	-116.1617	47.543	Final	9/8/1983	54.76
IDD984666610	EASTERN MICHAUD FLATS CONTAMINATION	"HWY 30, 3 MI W OF CITY"	POCATELLO	ID	83201	"POWER, BANNOCK"	16077	-112.5225	42.9011	Final	8/30/1990	57.8
ID4890008952	IDAHO NATIONAL ENGINEERING LABORATORY (USDOE)	AEC TESTING RESERVATION	IDAHO FALLS	ID	83401	"BUTTE,CLARK,JEFFERSON,BIN"	16023	-112.9435	43.5293	Final	11/21/1989	51.91
ILD980397079	"A & F MATERIAL RECLAIMING, INC."	WEST CUMBERLAND	GREENUP	IL	62428	CUMBERLAND	17035	-88.174	39.2439	Final	9/8/1983	55.49
ILD053219259	"ACME SOLVENT RECLAIMING, INC. (MORRISTOWN PLANT)"	EAST OF LINDENWOOD RD	MORRISTOWN	IL	61109	WINNEBAGO	17201	-89.0455	42.1577	Final	9/8/1983	31.98
ILD980607055	ADAMS COUNTY QUINCY LANDFILLS 2&3	2 MILES NORTH OF BURTON TWP 1/2 MI WEST	QUINCY	IL	62301	ADAMS	17001	-91.2684	39.9294	Final	8/30/1990	34.21
ILD002994259	AMOCO CHEMICALS (JOLIET LANDFILL)	ROUTE 6 NEAR ROUTE 66	JOLIET	IL	60434	WILL	17197	-88.1727	41.4416	Final	2/21/1990	39.44
ILN000508170	ASARCO TAYLOR SPRINGS	PUBLIC ROAD AND BROADWAY STREET	TAYLOR SPRINGS	IL	62089	MONTGOMERY	17135	-89.4949	39.1306	Final	9/27/2006	30
ILD021440375	BELOIT CORP.	1165 PRAIRIE HILL RD	ROCKTON	IL	61072	WINNEBAGO	17201	-89.0655	42.4686	Final	8/30/1990	52.08
ILD980497663	BELVIDERE MUNICIPAL LANDFILL	APPLETON RD	BELVIDERE	IL	61008	BOONE	17007	-88.8723	42.2643	Final	9/8/1983	28.62
ILD010236230	BYRON SALVAGE YARD	NW1/4 SEC 13 T24N R10E	BYRON	IL	61010	OGLE	17141	-89.2958	42.0816	Final	9/8/1983	33.93
ILD981781065	CENTRAL ILLINOIS PUBLIC SERVICE CO.	SOUTH WEBSTER STREET	TAYLORVILLE	IL	62568	CHRISTIAN	17021	-89.2975	39.5404	Final	8/30/1990	28.95
ILD980792303	CROSS BROTHERS PAIL RECYCLING (PEMBROKE)	ADDRESS UNREPORTED	PEMBROKE TOWNSHIP	IL	60944	KANKAKEE	17091	-87.5893	41.0909	Final	9/8/1983	42.04
ILD062340641	DEPUE/NEW JERSEY ZINC/MOBIL CHEMICAL CORP.	DEPOT ST & MARQUETTE ST	DEPUE	IL	61356	BUREAU	17011	-89.3041	41.3277	Final	5/10/1999	70.71
ILD980606305	DUPAGE COUNTY LANDFILL/BLACKWELL FOREST PRESERVE	ROUTE 56	WARRENVILLE	IL	60555	DUPAGE	17043	-88.1787	41.8326	Final	2/21/1990	35.57
ILD980606941	EAGLE ZINC CO DIV T L DIAMOND	218 INDUSTRIAL PARK DRIVE	HILLSBORO	IL	62049	MONTGOMERY	17135	-89.4736	39.1661	Final	9/19/2007	50
ILD990817991	GALESBURG/KOPPERS CO.	HWY 41S PO BOX 1191	GALESBURG	IL	60401	KNOX	17095	-90.3958	40.8958	Final	9/8/1983	34.78
ILD980605836	H.O.D. LANDFILL	55 MCMILLAN ROAD	ANTIOCH	IL	60002	LAKE	17097	-88.0819	42.4753	Final	2/21/1990	34.68
ILN000508134	HEGELER ZINC	1 HEGELER LANE	DANVILLE	IL	61832	VERMILION	17183	-87.65	40.0763	Final	4/27/2005	50
ILD042671248	INDIAN REFINERY-TEXACO LAWRENCEVILLE	SOUTH SEVENTH STREET	LAWRENCEVILLE	IL	62439	LAWRENCE	17101	-87.6822	38.7155	Final	12/1/2000	56.67
IND016360265	"AMERICAN CHEMICAL SERVICE, INC."	420 SOUTH COLFAX AVENUE	GRIFFITH	IN	46319	LAKE	18089	-87.4191	41.5142	Final	9/21/1984	34.98
IND006418651	BENNETT STONE QUARRY	ST RTE 37 & ST RTE 46	BLOOMINGTON	IN	47401	MONROE	18105	-86.5612	39.1902	Final	9/21/1984	32.55
IND005480462	CAM-OR INC.	STATE ROAD 2 AND HIGHWAY 421	WESTVILLE	IN	46391	LA PORTE	18091	-86.8993	41.5465	Final	3/6/1998	58.91
IND980607626	COLUMBUS OLD MUNICIPAL LANDFILL #1	3RD ST BRIDGE AT WHITE RIVER	COLUMBUS	IN	47201	BARTHOLOMEW	18005	-85.926	39.1974	Final	6/10/1986	45.31
IND000715490	CONRAIL RAIL YARD (ELKHART)	SR 33	ELKHART	IN	46514	ELKHART	18039	-86.0115	41.6634	Final	8/30/1990	42.24
IND001213503	CONTINENTAL STEEL CORP.	W MARKLAND AVE	KOKOMO	IN	46902	HOWARD	18067	-86.1562	40.4741	Final	3/31/1989	31.85
IND980607881	"DOUGLASS ROAD/UNIROYAL, INC., LANDFILL"	NW INTERSECTION OF DOUGLASS AND GRAPE RD	MISHAWAKA	IN	46544	ST. JOSEPH	18141	-86.1926	41.7132	Final	3/31/1989	36.61
INN000509938	ELM STREET GROUND WATER CONTAMINATION	ELM STREET AND HIGHWAY 41	TERRE HAUTE	IN	478071920	VIGO	18167	-87.4143	39.4765	Final	3/7/2007	50
IND084259951	ENVIROCHEM CORP.	865 SOUTH STATE ROAD 421	ZIONSVILLE	IN	46077	BOONE	18011	-86.2783	40.03	Final	9/8/1983	46.44
IND074315896	FISHER-CALO	PO BOX 684 KINGSBURY IND PK	LA PORTE	IN	46350	LA PORTE	18091	-86.6709	41.5081	Final	9/8/1983	52.05
IND980679542	FORT WAYNE REDUCTION DUMP	5225 OLD MAUMEE RD	FORT WAYNE	IN	46803	ALLEN	18003	-85.0666	41.075	Final	6/10/1986	42.47
IND980999635	GALEN MYERS DUMP/DRUM SALVAGE	11303 EDISON	OSCEOLA	IN	46561	ST. JOSEPH	18141	-86.0875	41.6958	Final	3/31/1989	42.24
IND980500292	HIMCO DUMP	COUNTY ROAD 10 AND NAPANEE EXTENSION	ELKHART	IN	46514	ELKHART	18039	-86.0084	41.7073	Final	2/21/1990	42.31
KSD981710247	57TH AND NORTH BROADWAY STREETS SITE	57TH & N BROADWAY STREETS	WICHITA	KS	67219	SEDGWICK	20173	-97.3166	37.775	Final	10/14/1992	50
KSD046746731	ACE SERVICES	345 CONVESSE	COLBY	KS	67701	THOMAS	20193	-101.0391	39.3969	Final	9/29/1995	50
KSD031349624	"CHEMICAL COMMODITIES, INC."	S. KEELER ST	OLATHE	KS	66061	JOHNSON	20091	-94.8055	38.8781	Final	5/31/1994	50
KSD980741862	CHEROKEE COUNTY	SOUTHEAST PORTION OF THE  STATE OF KS	GALENA	KS	66739	CHEROKEE	20021	-94.8238	37.0038	Final	9/8/1983	58.15
KSD980632301	DOEPKE DISPOSAL (HOLLIDAY)	HOLLIDAY DR	SHAWNEE MISSION	KS	66218	JOHNSON	20091	-94.8	39.0333	Final	9/8/1983	47.46
KS6214020756	FORT RILEY	DICKMAN AVE	JUNCTION CITY	KS	66441	GEARY	20061	-96.75	39.1666	Final	8/30/1990	33.79
KYD041981010	AIRCO	HWY 1523	CALVERT CITY	KY	42029	MARSHALL	21157	-88.3225	37.0496	Final	9/21/1984	33.29
KYD006370167	B.F. GOODRICH	KY HWY 1523	CALVERT CITY	KY	42029	MARSHALL	21157	-88.3234	37.0503	Final	9/8/1983	33.01
KYD980501019	BRANTLEY LANDFILL	HWY 85	ISLAND	KY	41098	MCLEAN	21149	-87.1561	37.4462	Final	2/21/1990	52.73
KYD045738291	"CALDWELL LACE LEATHER CO., INC."	111 E CALDWELL ST	AUBURN	KY	42206	LOGAN	21141	-86.7463	36.8725	Final	8/30/1990	34.21
KYD980602155	DISTLER BRICKYARD	US HWYS 31 & 60	WEST POINT	KY	40117	HARDIN	21093	-85.9513	37.9897	Final	9/8/1983	44.77
KYD980601975	DISTLER FARM	BLEVINS GAP RD	JEFFERSON COUNTY	KY	40272	JEFFERSON	21111	-85.9311	38.0069	Final	9/8/1983	34.62
KYD980844625	FORT HARTFORD COAL CO. STONE QUARRY	DAVIDSON STATION RD	OLATON	KY	42361	OHIO	21183	-86.7027	37.5388	Final	8/30/1990	43.84
KYD980501076	"GREEN RIVER DISPOSAL, INC."	KELLY CEMETARY RD	MACEO	KY	42365	DAVIESS	21059	-86.9736	37.8894	Final	8/30/1990	29.12
LAD981056997	AGRICULTURE STREET LANDFILL	ABUNDANCE STREET	NEW ORLEANS	LA	70126	ORLEANS PARISH	22071	-90.0401	29.9886	Final	12/16/1994	50
LAD000239814	"AMERICAN CREOSOTE WORKS, INC. (WINNFIELD PLANT)"	1006 FRONT STREET	WINNFIELD	LA	71483	WINN PARISH	22063	-92.6347	31.9186	Final	10/14/1992	50.7
LAD980745632	BAYOU BONFOUCA	BAYOU BONFOUCA	SLIDELL	LA	70458	ST. TAMMANY	22103	-89.7841	30.2822	Final	9/8/1983	29.78
LAD072606627	"COMBUSTION, INC."	RT 1; NE OF DENHAM SPRINGS	DENHAM SPRINGS	LA	70726	LIVINGSTON PARISH	22063	-90.8939	30.5129	Final	8/30/1990	33.79
MAD001026319	ATLAS TACK CORP.	PLEASANT ST	FAIRHAVEN	MA	2719	BRISTOL	25005	-70.8944	41.6355	Final	2/21/1990	42.6
MAD001041987	BAIRD & MCGUIRE	775 SOUTH ST	HOLBROOK	MA	2343	NORFOLK	25021	-71.0286	42.1497	Final	9/8/1983	66.35
MAD982191363	BLACKBURN & UNION PRIVILEGES	SOUTH ST.	WALPOLE	MA	2081	NORFOLK	25021	-71.2516	42.1387	Final	5/31/1994	50
MAD079510780	CANNON ENGINEERING CORP. (CEC)	FIRST ST	BRIDGEWATER	MA	2324	PLYMOUTH	25023	-71.0256	41.9727	Final	9/8/1983	39.89
MAD003809266	CHARLES-GEORGE RECLAMATION TRUST LANDFILL	CORNER DUNSTABLE & CUMMINGS RD	TYNGSBOROUGH	MA	1879	MIDDLESEX	25017	-71.4433	42.6694	Final	9/8/1983	47.2
MA7210025154	FORT DEVENS	BUENA VISTA ST	FORT DEVENS	MA	1433	"WORCESTER, MIDDLESEX"	25027	-71.5961	42.5361	Final	11/21/1989	42.24
MAD980732317	GROVELAND WELLS	JOHNSON CREEK WATERSHED	GROVELAND	MA	1834	ESSEX	25009	-71.0388	42.7533	Final	9/8/1983	40.74
MA8570024424	HANSCOM FIELD/HANSCOM AIR FORCE BASE	HARTWELL AVENUE	BEDFORD	MA	1730	MIDDLESEX	25017	-71.2894	42.4706	Final	5/31/1994	50
MAD001060805	HATHEWAY & PATTERSON	15 COUNTY ROAD	MANSFIELD	MA	2048	BRISTOL	25005	-71.2225	42.0381	Final	9/5/2002	56.6
MAD980523336	HAVERHILL MUNICIPAL LANDFILL	OLD GROVELAND RD	HAVERHILL	MA	1830	ESSEX	25009	-71.0466	42.7538	Final	6/10/1986	30.29
MAD980732341	HOCOMONCO POND	FISHER ST	WESTBOROUGH	MA	1581	WORCESTER	25027	-71.6508	42.2727	Final	9/8/1983	44.8
MAD076580950	INDUSTRI-PLEX	COMMERCE & ATLANTIC	WOBURN	MA	1801	MIDDLESEX	25017	-71.1416	42.5166	Final	9/8/1983	72.42
MD2210020036	ABERDEEN PROVING GROUND (EDGEWOOD AREA)	OFF RTE 40	EDGEWOOD	MD	21010	HARFORD	24025	-76.3077	39.3954	Final	2/21/1990	53.57
MD3210021355	ABERDEEN PROVING GROUND (MICHAELSVILLE LANDFILL)	OFF RTE 40	ABERDEEN	MD	21005	HARFORD	24025	-76.1414	39.4606	Final	10/4/1989	31.09
MD0570024000	ANDREWS AIR FORCE BASE	ALLENTOWN ROAD	ANDREWS AIR FORCE BASE	MD	20762	PRINCE GEORGE'S	24033	-76.875	38.7916	Final	5/10/1999	50
MD0120508940	BELTSVILLE AGRICULTURAL RESEARCH CENTER (USDA)	BEAVERDAM AND SHEEP ROADS	BELTSVILLE	MD	20705	PRINCE GEORGE'S	24033	-76.8845	39.0291	Final	5/31/1994	50
MD9570024803	BRANDYWINE DRMO	BRANDYWINE ROAD AND CHERRY TREE CROSSING	BRANDYWINE	MD	20613	PRINCE GEORGE'S	24033	-76.845	38.698	Final	5/10/1999	50.15
MDD980504195	BUSH VALLEY LANDFILL	BUSH RD POB 246	ABINGDON	MD	21009	HARFORD	24025	-76.2619	39.4672	Final	3/31/1989	40.3
MDD003061447	CENTRAL CHEMICAL (HAGERSTOWN)	MITCHELL AVE	HAGERSTOWN	MD	21742	WASHINGTON	24043	-77.7236	39.6566	Final	9/25/1997	50
MD4690307844	CURTIS BAY COAST GUARD YARD	2401 HAWKINS POINT RD	BALTIMORE	MD	21226	ANNE ARUNDEL	24003	-76.5726	39.2	Final	9/5/2002	50
MDD985397249	FORT DETRICK AREA B GROUND WATER	810 SCHREIDER STREET	FORT DETRICK	MD	21702	FREDERICK	24021	-77.4466	39.4341	Final	4/9/2009	49.52
MD9210020567	FORT GEORGE G. MEADE	MARYLAND ROUTE 175	ODENTON	MD	21113	ANNE ARUNDEL	24003	-76.7152	39.0833	Final	7/28/1998	51.44
MD7170024684	INDIAN HEAD NAVAL SURFACE WARFARE CENTER	201 INDIAN HEAD HIGHWAY	INDIAN HEAD	MD	20640	CHARLES	24017	-77.1743	38.5913	Final	9/29/1995	50
ME8170022018	BRUNSWICK NAVAL AIR STATION	RTE 24 AND 123	BRUNSWICK	ME	4011	CUMBERLAND	23005	-69.9339	43.9063	Final	7/22/1987	43.38
MED980524128	CALLAHAN MINING CORP	HARBORSIDE	BROOKSVILLE (CAPE ROSIER)	ME	4617	HANCOCK	23009	-68.8101	44.3516	Final	9/5/2002	50
MED981073711	EASTERN SURPLUS	ROUTE 191	MEDDYBEMPS	ME	4657	WASHINGTON	23029	-67.3583	45.0388	Final	6/17/1996	50
MED980915474	EASTLAND WOOLEN MILL	MAIN STREET	CORINNA	ME	4928	PENOBSCOT	23019	-69.2611	44.9216	Final	7/22/1999	70.71
MID006522791	ADAM'S PLATING	521 NORTH ROSEMARY	LANSING	MI	48917	INGHAM	26065	-84.5877	42.7394	Final	3/31/1989	29.64
MI0001119106	AIRCRAFT COMPONENTS (D & L SALES)	671 NORTH SHORE DRIVE	BENTON HARBOR	MI	49022	BERRIEN	26021	-86.4544	42.1269	Final	6/17/1996	0
MID980504450	ALBION-SHERIDAN TOWNSHIP LANDFILL	13355 29 MILE ROAD	ALBION	MI	49224	CALHOUN	26025	-84.7195	42.2495	Final	10/4/1989	33.79
MID006007306	"ALLIED PAPER, INC./PORTAGE CREEK/KALAMAZOO RIVER"	511 EAST PATERSON STREET BOX 2798	KALAMAZOO	MI	49003	KALAMAZOO	26077	-85.576	42.3033	Final	8/30/1990	36.41
MID006029102	"AMERICAN ANODCO, INC."	28 NORTH BEARDSLEY STREET	IONIA	MI	48846	IONIA	26067	-85.03	42.9875	Final	3/31/1989	57.99
MID980794382	"AUTO ION CHEMICALS, INC."	74 MILL STREET	KALAMAZOO	MI	49006	KALAMAZOO	26077	-85.5672	42.2938	Final	9/8/1983	32.07
MID017188673	"BARRELS, INC."	1404 NORTH LARCH STREET	LANSING	MI	48906	INGHAM	26065	-84.5433	42.749	Final	10/4/1989	42.24
MID005107222	BENDIX CORP./ALLIED AUTOMOTIVE	3737 RED ARROW HIGHWAY	ST. JOSEPH	MI	49085	BERRIEN	26021	-86.5119	42.0494	Final	2/21/1990	37.27
MID006030373	"BOFORS NOBEL, INC."	5025 EVANSTON AVE	MUSKEGON	MI	49442	MUSKEGON	26121	-86.1174	43.2093	Final	3/31/1989	53.42
MID980410617	BURROWS SANITATION	ME1/4 SEC10 R16W T3S	HARTFORD	MI	49057	VAN BUREN	26159	-86.1502	42.2233	Final	9/21/1984	30.59
MID062222997	BUTTERWORTH #2 LANDFILL	1500 BUTTERWORTH	GRAND RAPIDS	MI	49504	KENT	26081	-85.7002	42.9522	Final	9/8/1983	50.31
MID980678627	"CANNELTON INDUSTRIES, INC."	ADDRESS UNREPORTED	SAULT STE MARIE	MI	49783	CHIPPEWA	26033	-84.393	46.4888	Final	8/30/1990	30.16
MID980477079	CHEM CENTRAL	2940 STAFFORD AVE SW	WYOMING TOWNSHIP	MI	49548	KENT	26081	-85.6741	42.91	Final	9/8/1983	38.2
MID980002273	CLARE WATER SUPPLY	CITY HALL 202 W 5TH ST	CLARE	MI	48617	CLARE	26035	-84.7625	43.815	Final	9/21/1984	38.43
MID980504716	DUELL & GARDNER LANDFILL	1285 E BARD RD	DALTON TOWNSHIP	MI	49445	MUSKEGON	26121	-86.2083	43.3194	Final	9/8/1983	34.68
MID005068143	ELECTROVOICE	600 CECIL STREET	BUCHANAN	MI	49107	BERRIEN	26021	-86.3545	41.8206	Final	9/21/1984	35.36
MID980410740	FOREST WASTE PRODUCTS	8359 E FARRAND RD	OTISVILLE	MI	48463	GENESEE	26049	-83.5458	43.1983	Final	9/8/1983	38.64
MID980410823	G&H LANDFILL	3160 23 MILE RD	UTICA	MI	48316	MACOMB	26099	-83.0777	42.6647	Final	9/8/1983	49.09
MID017418559	GRAND TRAVERSE OVERALL SUPPLY CO.	10725 CHERRY BEND RD	GREILICKVILLE	MI	49684	LEELANAU	26089	-85.6382	44.7944	Final	9/8/1983	35.53
MID980506281	GRATIOT COUNTY LANDFILL	585 EAST JACKSON ROAD	ST. LOUIS	MI	48880	GRATIOT	26057	-84.5952	43.395	Final	9/8/1983	0
MID017075136	"H. BROWN CO., INC."	2200 TURNER AVENUE NORTHWEST	GRAND RAPIDS	MI	49544	KENT	26081	-85.6783	43.0033	Final	6/10/1986	39.88
MID980794408	HEDBLUM INDUSTRIES	1000 AUSABLE RD	OSCODA	MI	48750	IOSCO	26069	-83.3469	44.4113	Final	9/8/1983	37.29
MID005341714	HI-MILL MANUFACTURING CO.	1704 HIGHLAND RD	HIGHLAND	MI	48356	OAKLAND	26125	-83.593	42.6498	Final	2/21/1990	49.54
MND980823975	ARROWHEAD REFINERY CO.	NW CORNER HWY 53 & UGSTAD ROAD	HERMANTOWN	MN	55810	ST. LOUIS	27137	-92.2398	46.8377	Final	9/21/1984	43.75
MND982425209	BAYTOWN TOWNSHIP GROUND WATER PLUME	35TH STREET  N	BAYTOWN TOWNSHIP	MN	55042	WASHINGTON	27163	-92.8333	45	Final	12/16/1994	35.62
MND000686196	BURLINGTON NORTHERN (BRAINERD/BAXTER PLANT)	WEST CITY LIMITS	BRAINERD/BAXTER	MN	56401	CROW WING	27035	-94.2282	46.3532	Final	9/8/1983	46.77
MND006481543	FMC CORP. (FRIDLEY PLANT)	4800 E RIVER RD	FRIDLEY	MN	55421	ANOKA	27003	-93.2762	45.0565	Final	9/8/1983	65.5
MND038384004	FREEWAY SANITARY LANDFILL	WEST 113TH STREET & I-HWY 35WEST	BURNSVILLE	MN	55337	DAKOTA	27037	-93.2933	44.795	Final	6/10/1986	45.91
MND985701309	FRIDLEY COMMONS PARK WELL FIELD	"61ST AVENUE, NE & 7TH STREET, NE"	FRIDLEY	MN	55432	ANOKA	27003	-93.2555	45.0805	Final	1/19/1999	50
MND051441731	GENERAL MILLS/HENKEL CORP.	2010 E HENNEPIN AVE	MINNEAPOLIS	MN	55414	HENNEPIN	27053	-93.2227	44.99	Final	9/21/1984	36.28
MO0000958611	ANNAPOLIS LEAD MINE	EAST SIDE OF IRON COUNTY ROAD 138	ANNAPOLIS	MO	63620	IRON	29093	-90.675	37.3555	Final	7/22/2004	56.67
MOD046750253	ARMOUR ROAD	2251 ARMOUR ROAD	NORTH KANSAS CITY	MO	64116	CLAY	29047	-94.5561	39.145	Final	5/10/1999	50
MOD980860522	BEE CEE MANUFACTURING CO.	MALDEN INDUSTRIAL PARK	MALDEN	MO	63863	DUNKLIN	29069	-89.98	36.6033	Final	6/10/1986	28.59
MOD981126899	BIG RIVER MINE TAILINGS/ST. JOE MINERALS CORP.	SECTION 25 26 35 & 36 T37N R4E	DESLOGE	MO	63601	ST. FRANCOIS	29187	-90.55	37.8863	Final	10/14/1992	84.91
MOD000829705	CONSERVATION CHEMICAL CO.	3900 FRONT ST	KANSAS CITY	MO	64120	JACKSON	29095	-94.4722	39.1279	Final	10/4/1989	29.85
MOD980633010	ELLISVILLE SITE	NEAR ELLISVILLE	ELLISVILLE	MO	63011	ST. LOUIS	29189	-90.6183	38.6033	Final	9/8/1983	0
MOD980631139	FULBRIGHT LANDFILL	BOLIVAR RD	SPRINGFIELD	MO	65803	GREENE	29077	-93.3125	37.273	Final	9/8/1983	40.6
MSD004006995	AMERICAN CREOSOTE WORKS INC	RAILROAD AVE	LOUISVILLE	MS	39339	WINSTON	28159	-89.0583	33.1111	Final	9/13/2001	62.2
MSD046497012	DAVIS TIMBER COMPANY	107 JACKSON STREET	HATTIESBURG	MS	39401	LAMAR	28073	-89.4044	31.3451	Final	7/27/2000	48.57
MTD093291656	ANACONDA CO. SMELTER	3 MI SE OF ANACONDA	ANACONDA	MT	59711	DEER LODGE	30023	-112.915	46.1166	Final	9/8/1983	58.71
MT6122307485	BARKER HUGHESVILLE MINING DISTRICT	FOREST SERVICE ROAD 6403	MONARCH	MT	59469	"CASCADE, JUDITH BASIN"	30013	-110.6302	47.0833	Final	9/13/2001	50
MTD982572562	BASIN MINING AREA	NORTH OF I-15	BASIN	MT	59631	JEFFERSON	30043	-112.2633	46.2727	Final	10/22/1999	61.15
MT0001096353	CARPENTER SNOW CREEK MINING DISTRICT	NO SPECIFIC ADDRESS	NEIHART	MT	59465	CASCADE	30013	-110.7258	46.9613	Final	9/13/2001	50
MTD006230346	EAST HELENA SITE	S OF E HELENA	EAST HELENA	MT	59635	LEWIS AND CLARK	30049	-111.9183	46.5816	Final	9/21/1984	61.65
MT0012694970	FLAT CREEK IMM	FLAT CREEK ROAD AND HALL GULCH ROAD	SUPERIOR	MT	59872	MINERAL	30061	-114.8527	47.2402	Final	9/23/2009	51.33
MTD006232276	IDAHO POLE CO.	CEDAR ST	BOZEMAN	MT	59715	GALLATIN	30031	-111.0217	45.6883	Final	6/10/1986	38.29
NCD024644494	ABC ONE HOUR CLEANERS	2127 LE JEUNE BLVD.	JACKSONVILLE	NC	28540	ONSLOW	37133	-77.3666	34.7414	Final	3/31/1989	29.11
NCN000407447	ABERDEEN CONTAMINATED GROUND WATER	"HWY 211, OLD PEE DEE RD, BLUES BRG RD"	Aberdeen	NC	28315	MOORE	37125	-79.4025	35.1224	Final	9/3/2008	50
NCD980843346	ABERDEEN PESTICIDE DUMPS	OFF HWY 5 W	ABERDEEN	NC	28315	MOORE	37125	-79.4472	35.1384	Final	3/31/1989	52.7
NCSFN0406989	BARBER ORCHARD	U.S. HIGHWAY 23/74	WAYNESVILLE	NC	28786	HAYWOOD	37087	-83.0638	35.4458	Final	9/13/2001	70.71
NCD981026479	"BENFIELD INDUSTRIES, INC."	RICHLAND ST.	HAZELWOOD	NC	28738	HAYWOOD	37087	-83.0041	35.4777	Final	10/4/1989	31.67
NCD044447589	BLUE RIDGE PLATING COMPANY	171 GLENN BRIDGE ROAD	ARDEN	NC	28704	BUNCOMBE	37021	-82.5283	35.4623	Final	9/14/2005	38.67
NCD044440303	BYPASS 601 GROUND WATER CONTAMINATION	440 HWY 29 NORTH	CONCORD	NC	28025	CABARRUS	37025	-80.6093	35.4096	Final	6/10/1986	37.93
NC6170022580	CAMP LEJEUNE MILITARY RES. (USNAVY)	NC HWY 24 & US HWY 16	ONSLOW COUNTY	NC	28542	ONSLOW	37133	-77.3429	34.7177	Final	10/4/1989	33.13
NCD003188828	CAPE FEAR WOOD PRESERVING	REILLY RD	FAYETTEVILLE	NC	28303	CUMBERLAND	37051	-79.0208	35.0494	Final	7/22/1987	34.09
NCD003188844	CAROLINA TRANSFORMER CO.	HWY 301 N EASTERN BLVD	FAYETTEVILLE	NC	28301	CUMBERLAND	37051	-78.845	35.0633	Final	7/22/1987	33.76
NCD003446721	CELANESE CORP. (SHELBY FIBER OPERATIONS)	HWY 198	SHELBY	NC	28150	CLEVELAND	37045	-81.5283	35.2088	Final	6/10/1986	48.98
NCD980840409	CHARLES MACON LAGOON AND DRUM STORAGE	COUNTY RD 1103	CORDOVA	NC	28330	RICHMOND	37153	-79.8375	34.8925	Final	7/22/1987	47.1
NCD095459392	"CHEMTRONICS, INC."	OLD BEE TREE RD	SWANNANOA	NC	28778	BUNCOMBE	37021	-82.4347	35.625	Final	9/8/1983	30.16
NC1170027261	CHERRY POINT MARINE CORPS AIR STATION	ROOSEVELT BLVD. AND SLOCUM RD.	HAVELOCK	NC	28533	CRAVEN	37049	-76.8917	34.9	Final	12/16/1994	70.71
NCD986175644	DAVIS PARK ROAD TCE	2307 DAVIS PARK ROAD	GASTONIA	NC	28052	GASTON	37071	-81.2188	35.2316	Final	1/19/1999	33.5
NCD095458527	"FCX, INC. (STATESVILLE PLANT)"	1620 W. FRONT ST.	STATESVILLE	NC	28677	IREDELL	37097	-80.9163	35.7865	Final	2/21/1990	37.93
NCD981475932	"FCX, INC. (WASHINGTON PLANT)"	GRIMES RD	WASHINGTON	NC	27889	BEAUFORT	37013	-77.0744	35.5595	Final	3/31/1989	40.39
NCD981927502	GEIGY CHEMICAL CORP. (ABERDEEN PLANT)	"RT.211,.4MI WEST OF SR 2063"	ABERDEEN	NC	28315	MOORE	37125	-79.4066	35.1261	Final	10/4/1989	33.02
NCD079044426	GENERAL ELECTRIC CO/SHEPHERD FARM	SPARTANBURG HWY	EAST FLAT ROCK	NC	28726	HENDERSON	37089	-82.4111	35.2722	Final	12/16/1994	70.71
NCN000410161	GMH ELECTRONICS	1800 VIRGILINA ROAD	ROXBORO	NC	27574	PERSON	37145	-78.563	36.2505	Final	9/23/2009	50
NED981713837	10TH STREET SITE	28TH AVE & 10TH ST	COLUMBUS	NE	68601	PLATTE	31141	-97.3622	41.4265	Final	8/30/1990	28.9
NED981713829	BRUNO CO-OP ASSOCIATION/ASSOCIATED PROPERTIES	FREMONT ST & RAILROAD ST	BRUNO	NE	68014	BUTLER	31023	-96.9597	41.2847	Final	6/17/1996	50
NED981499312	CLEBURN STREET WELL	NORTH FRONT STREET	GRAND ISLAND	NE	68801	HALL	31079	-98.3477	40.9251	Final	10/14/1992	50
NE2213820234	CORNHUSKER ARMY AMMUNITION PLANT	6 MI W OF	GRAND ISLAND	NE	68802	HALL	31079	-98.4925	40.9233	Final	7/22/1987	51.13
NEN000704351	GARVEY ELEVATOR	INDUSTRIAL PARK WEST-HIGHWAY 6 & SUMMIT	HASTINGS	NE	68901	ADAMS	31001	-98.4155	40.5636	Final	9/14/2005	50
NED980862668	HASTINGS GROUND WATER CONTAMINATION	E CENTRAL HASTINGS	HASTINGS	NE	68901	ADAMS	31001	-98.3833	40.5833	Final	6/10/1986	42.24
NHD980524086	AUBURN ROAD LANDFILL	AUBURN RD	LONDONDERRY	NH	3053	ROCKINGHAM	33015	-71.3529	42.9302	Final	9/8/1983	36.3
NHD018958140	BEEDE WASTE OIL	7 THROUGH 11 KELLEY ROAD	PLAISTOW	NH	3865	ROCKINGHAM	33015	-71.1058	42.855	Final	12/23/1996	70.71
NHN000103313	CHLOR-ALKALI FACILITY (FORMER)	ADJACENT TO SAW MILL DAM	BERLIN	NH	3570	COOS	33007	-71.1671	44.4791	Final	9/14/2005	30.54
NHD064424153	COAKLEY LANDFILL	480 BREAKFAST HILL RD	NORTH HAMPTON	NH	3840	ROCKINGHAM	33015	-70.8172	43.0011	Final	6/10/1986	29.16
NHD980520191	DOVER MUNICIPAL LANDFILL	TOLEND RD	DOVER	NH	3820	STRAFFORD	33017	-70.953	43.2125	Final	9/8/1983	36.98
NHD001079649	FLETCHER'S PAINT WORKS & STORAGE	21 ELM ST.	MILFORD	NH	3055	HILLSBOROUGH	33011	-71.6554	42.8358	Final	3/31/1989	35.39
NJD030253355	A. O. POLYMER	F4 STATION ROAD	SPARTA TOWNSHIP	NJ	7871	SUSSEX	34037	-74.63	41.048	Final	9/8/1983	28.91
NJD002173276	AMERICAN CYANAMID CO	EASTON TURNPIKE	BOUND BROOK	NJ	8805	SOMERSET	34035	-74.5594	40.5555	Final	9/8/1983	50.28
NJD980654149	ASBESTOS DUMP	TIFA SQUARE	MILLINGTON	NJ	7946	MORRIS	34027	-74.5255	40.6725	Final	9/8/1983	39.61
NJD981558430	ATLANTIC RESOURCES	120 HORSESHOE ROAD	SAYREVILLE	NJ	8872	MIDDLESEX	34023	-74.3194	40.4861	Final	9/5/2002	50
NJD063157150	BOG CREEK FARM	SQUANRUM RD. (MONMOUTH CO. RT. 547)	HOWELL TOWNSHIP	NJ	7727	MONMOUTH	34025	-74.1611	40.1508	Final	9/8/1983	43.23
NJD980505176	BRICK TOWNSHIP LANDFILL	SALLY IKE ROAD	BRICK TOWNSHIP	NJ	8723	OCEAN	34029	-74.1311	40.1098	Final	9/8/1983	58.13
NJD053292652	BRIDGEPORT RENTAL & OIL SERVICES	CEDAR SWAMP RD	BRIDGEPORT	NJ	8014	GLOUCESTER	34015	-75.3216	39.8016	Final	9/8/1983	60.73
NJD078251675	BROOK INDUSTRIAL PARK	100 WEST MAIN STREET	BOUND BROOK	NJ	8805	SOMERSET	34035	-74.5361	40.5601	Final	10/4/1989	58.12
NJD980504997	BURNT FLY BOG	TYLERS LANE	MARLBORO TOWNSHIP	NJ	7746	MONMOUTH	34025	-74.2791	40.375	Final	9/8/1983	59.16
NJD048798953	CALDWELL TRUCKING CO.	222 PASSAIC AVENUE	FAIRFIELD	NJ	7004	ESSEX	34013	-74.2713	40.8763	Final	9/8/1983	58.3
NJD000607481	CHEMICAL CONTROL	23 SOUTH FRONT ST	ELIZABETH	NJ	7202	UNION	34039	-74.1935	40.6432	Final	9/8/1983	47.13
NJD980484653	CHEMICAL INSECTICIDE CORP.	30 WHITMAN AV	EDISON TOWNSHIP	NJ	8817	MIDDLESEX	34023	-74.368	40.5274	Final	8/30/1990	37.93
NJD047321443	"CHEMICAL LEAMAN TANK LINES, INC."	CEDAR SWAMP & COOPER RDS	BRIDGEPORT	NJ	8014	GLOUCESTER	34015	-75.3327	39.7983	Final	9/21/1984	47.53
NJD980528889	"CHEMSOL, INC."	FLEMING ST	PISCATAWAY	NJ	8854	MIDDLESEX	34023	-74.4433	40.5625	Final	9/8/1983	42.69
NJD001502517	CIBA-GEIGY CORP.	RTE #37	TOMS RIVER	NJ	8753	OCEAN	34029	-74.2363	39.9867	Final	9/8/1983	50.33
NJD980785638	CINNAMINSON TOWNSHIP (BLOCK 702) GROUND WATER CONTAMINATION	1017 UNION LANDING ROAD	CINNAMINSON TOWNSHIP	NJ	8077	BURLINGTON	34005	-74.9862	40.0175	Final	6/10/1986	37.93
NJD094966611	COMBE FILL SOUTH LANDFILL	PARKER ROAD- BOX 418	CHESTER TOWNSHIP	NJ	7930	MORRIS	34027	-74.7383	40.7716	Final	9/8/1983	45.22
NJD981557879	CORNELL DUBILIER ELECTRONICS INC.	333 HAMILTON BLVD	SOUTH PLAINFIELD	NJ	7080	MIDDLESEX	34023	-74.4141	40.5763	Final	7/28/1998	50.27
NJD000565531	COSDEN CHEMICAL COATINGS CORP.	CHERRY STREET	BEVERLY	NJ	8010	BURLINGTON	34005	-74.9258	40.0581	Final	7/22/1987	33.86
NJD002141190	CPS/MADISON INDUSTRIES	WATERWORKS ROAD	OLD BRIDGE TOWNSHIP	NJ	8857	MIDDLESEX	34023	-74.3277	40.4344	Final	9/8/1983	69.73
NJN000204492	CROWN VANTAGE LANDFILL	ADJ. TO DELAWARE RIVER 1/2 MI. SOUTH OF	ALEXANDRIA TOWNSHIP	NJ	8848	HUNTERDON	34019	-75.0789	40.552	Final	4/27/2005	50
NJD011717584	"CURCIO SCRAP METAL, INC."	416 LANZA AVE	SADDLE BROOK TWP	NJ	7662	BERGEN	34003	-74.1035	40.8907	Final	7/22/1987	34.37
NJD057143984	"CURTIS SPECIALTY PAPERS, INC"	404 FRENCHTOWN ROAD	MILFORD	NJ	8848	HUNTERDON	34019	-75.08	40.5601	Final	9/23/2009	50
NJD980529416	D'IMPERIO PROPERTY	RTE 322	HAMILTON TOWNSHIP	NJ	8330	ATLANTIC	34001	-74.6588	39.4544	Final	9/8/1983	55.79
NJD002168748	DAYCO CORP./L.E CARPENTER CO.	170 N MAIN STREET	WHARTON BOROUGH	NJ	7885	MORRIS	34027	-74.5775	40.9033	Final	7/22/1987	46.13
NJD980761373	DE REWAL CHEMICAL CO.	DELAWARE RIVER DR	KINGWOOD TOWNSHIP	NJ	8825	HUNTERDON	34019	-75.0614	40.5162	Final	9/21/1984	35.72
NJD980528996	DIAMOND ALKALI CO.	80 LISTER AVE	NEWARK	NJ	7105	ESSEX	34013	-74.1361	40.7397	Final	9/21/1984	35.4
NJD092226000	DIAMOND HEAD OIL REFINERY DIV.	1401 HARRISON TURNPIKE	KEARNY	NJ	7032	HUDSON	34017	-74.1321	40.7472	Final	9/5/2002	30
NJD980654131	DOVER MUNICIPAL WELL 4	272 ROUTE46	DOVER	NJ	7801	MORRIS	34027	-74.5423	40.8858	Final	9/8/1983	28.9
NJD980529085	ELLIS PROPERTY	SHARP ROAD	EVESHAM TOWNSHIP	NJ	8053	BURLINGTON	34005	-74.8647	39.905	Final	9/8/1983	34.62
NJD980772727	EMMELL'S SEPTIC LANDFILL	128 ZURICH AVE	GALLOWAY TOWNSHIP	NJ	8215	ATLANTIC	34001	-74.5436	39.5006	Final	7/22/1999	50
NJD980654222	EVOR PHILLIPS LEASING	HORSESHOE RD.	OLD BRIDGE TOWNSHIP	NJ	8857	MIDDLESEX	34023	-74.325	40.4375	Final	9/8/1983	36.64
NJD980761365	EWAN PROPERTY	WALLINGFORD WAY	SHAMONG TOWNSHIP	NJ	8088	BURLINGTON	34005	-74.7194	39.8027	Final	9/21/1984	50.19
NJD980654107	FAIR LAWN WELL FIELD	IND PARK/HENDERSON BLVD 11 ST	FAIR LAWN	NJ	7410	BERGEN	34003	-74.1319	40.9375	Final	9/8/1983	42.49
NJ9690510020	FEDERAL AVIATION ADMINISTRATION TECHNICAL CENTER (USDOT)	ROUTES 563 & 575	ATLANTIC COUNTY	NJ	8405	ATLANTIC	34001	-74.5833	39.4583	Final	8/30/1990	39.65
NJ0001900281	FEDERAL CREOSOTE	VALERIE DRIVE & LOUISE DRIVE	MANVILLE	NJ	8835	SOMERSET	34035	-74.5841	40.5444	Final	1/19/1999	50
NJ2210020275	FORT DIX (LANDFILL SITE)	JULIUSTOWN-BROWNS MILLS RD	PEMBERTON TOWNSHIP	NJ	8562	BURLINGTON	34005	-74.6244	39.9801	Final	7/22/1987	37.4
NJD986570992	FRANKLIN BURN	SIX LOCATIONS NEAR MARSHALL MILL ROAD	FRANKLIN TOWNSHIP	NJ	8322	GLOUCESTER	34015	-75.025	39.5944	Final	6/17/1996	40.67
NJD041828906	FRIED INDUSTRIES	11 FRESH POND ROAD	EAST BRUNSWICK TOWNSHIP	NJ	8816	MIDDLESEX	34023	-74.4412	40.4424	Final	6/10/1986	33.61
NJD053280160	GARDEN STATE CLEANERS CO.	"SUMMER ROAD, P.O. BOX 183"	MINOTOLA	NJ	8341	ATLANTIC	34001	-74.9494	39.519	Final	3/31/1989	28.9
NJD980529192	GEMS LANDFILL	ERIAL & HICKSTOWN ROADS	GLOUCESTER TOWNSHIP	NJ	8012	CAMDEN	34007	-75.0188	39.7794	Final	9/8/1983	68.53
NJD063160667	GLOBAL SANITARY LANDFILL	ERNSTON ROAD	OLD BRIDGE TOWNSHIP	NJ	8857	MIDDLESEX	34023	-74.2861	40.4463	Final	3/31/1989	45.92
NJD980530109	GOOSE FARM	RT. 539 BETWEEN RTS 537 & 528	PLUMSTEAD TOWNSHIP	NJ	8533	OCEAN	34029	-74.4975	40.0955	Final	9/8/1983	47.71
NJD980505366	HELEN KRAMER LANDFILL	JESSUP MILL ROAD	MANTUA TOWNSHIP	NJ	8051	GLOUCESTER	34015	-75.2003	39.7801	Final	9/8/1983	72.66
NJD002349058	"HERCULES, INC. (GIBBSTOWN PLANT)"	NORTH MARKET ST	GIBBSTOWN	NJ	8027	GLOUCESTER	34015	-75.2777	39.8388	Final	9/8/1983	40.36
NJD053102232	HIGGINS DISPOSAL	121 LAUREL AVE	KINGSTON	NJ	8526	SOMERSET	34035	-74.6152	40.3875	Final	8/30/1990	30.87
NJD981490261	HIGGINS FARM	ROUTE 518	FRANKLIN TOWNSHIP	NJ	8540	SOMERSET	34035	-74.6027	40.4063	Final	3/31/1989	30.47
NJD980663678	HORSESHOE ROAD		SAYREVILLE	NJ	8872	MIDDLESEX	34023	-74.3194	40.4847	Final	9/29/1995	51.37
NJ0001360882	ICELAND COIN LAUNDRY AREA GW PLUME	1888 SOUTH DELSEA DRIVE	VINELAND	NJ	8360	CUMBERLAND	34011	-75.0472	39.4572	Final	10/22/1999	30.3
NJD980654099	"IMPERIAL OIL CO., INC./CHAMPION CHEMICALS"	ORCHARD RD	MORGANVILLE	NJ	7751	MONMOUTH	34025	-74.2458	40.3838	Final	9/8/1983	33.87
NMD980622864	AT&SF (ALBUQUERQUE)	"3300 2ND STREET , SW"	ALBUQUERQUE	NM	87102	BERNALILLO	35001	-106.6552	35.0333	Final	12/16/1994	50
NMD980749378	CIMARRON MINING CORP.	EAST OF HWY 380	CARRIZOZO	NM	88301	LINCOLN	35027	-105.8647	33.6434	Final	10/4/1989	38.93
NMD001829506	EAGLE PICHER CAREFREE BATTERY	EXIT 152 I-25	SOCORRO	NM	87801	SOCORRO	35053	-106.9063	34.0997	Final	9/19/2007	50
NMD986668911	FRUIT AVENUE PLUME	NEAR INTERSECTION OF EDITH AND GRAND AVE	ALBUQUERQUE	NM	87102	BERNALILLO	35001	-106.6406	35.0864	Final	10/22/1999	50
NM0007271768	GRANTS CHLORINATED SOLVENTS	JEFFERSON AND NORTH FIRST STREETS	GRANTS	NM		CIBOLA	35006	-107.8438	35.1557	Final	7/22/2004	50
NM0002271286	GRIGGS & WALNUT GROUND WATER PLUME	153 NORTH COTTONWOOD ST.	LAS CRUCES	NM	88004	DONA ANA	35013	-106.76	32.3155	Final	6/14/2001	50
NMD007860935	HOMESTAKE MINING CO.	HWY 53	MILAN	NM	87020	CIBOLA	35006	-107.8633	35.2433	Final	9/8/1983	34.21
NVD980813646	CARSON RIVER MERCURY SITE	DEER RUN RD TO DAYTON IN RIV	DAYTON	NV	89401	LYON	32019	-119.5892	39.2319	Final	8/30/1990	39.07
NYD002066330	AMERICAN THERMOSTAT CO.	RTE 23 B	SOUTH CAIRO	NY	12482	GREENE	36039	-73.9411	42.2669	Final	9/8/1983	33.61
NYD980535652	APPLIED ENVIRONMENTAL SERVICES	ONE SHORE RD	GLENWOOD LANDING	NY	11545	NASSAU	36059	-73.6466	40.823	Final	6/10/1986	41.15
NYD980652275	BREWSTER WELL FIELD	MAIN ST /SE	PUTNAM COUNTY	NY	10509	PUTNAM	36079	-73.6	41.4016	Final	9/8/1983	37.93
NY7890008975	BROOKHAVEN NATIONAL LABORATORY (USDOE)	53 BELL AVE	UPTON	NY	11961	SUFFOLK	36103	-72.8695	40.86	Final	11/21/1989	39.92
NYD980780670	BYRON BARREL & DRUM	TOWN LINE ROAD	BYRON TOWNSHIP	NY	14422	GENESEE	36037	-78.1103	43.1191	Final	6/10/1986	37.27
NYD010968014	CARROLL & DUBIES SEWAGE DISPOSAL	CANAL STREET	PORT JERVIS	NY	12771	ORANGE	36071	-74.6681	41.3942	Final	2/21/1990	33.74
NYN000204289	CAYUGA GROUNDWATER CONTAMINATION SITE	STATE ROUTE 326	UNION SPRINGS	NY	13160	CAYUGA	36011	-76.6425	42.8805	Final	9/5/2002	50
NYD981184229	CIRCUITRON CORP.	82 MILBAR BOULEVARD	EAST FARMINGDALE	NY	11735	SUFFOLK	36103	-73.4195	40.7495	Final	3/31/1989	54.27
NYD002044584	CLAREMONT POLYCHEMICAL	501 WINDING ROAD	OLD BETHPAGE	NY	11804	NASSAU	36059	-73.4432	40.7576	Final	6/10/1986	31.62
NYD980768691	COLESVILLE MUNICIPAL LANDFILL	EAST WINDSOR RD	TOWN OF COLESVILLE	NY	13813	BROOME	36007	-75.5894	42.1604	Final	6/10/1986	30.26
NYD125499673	COMPUTER CIRCUITS	145 MARCUS BOULEVARD	HAUPPAUGE	NY	11788	SUFFOLK	36103	-73.2461	40.8131	Final	5/10/1999	50
NY0002455756	CONSOLIDATED IRON AND METAL	EAST END OF WASHINGTON STREET	NEWBURGH	NY	12550	ORANGE	36071	-74.0056	41.498	Final	6/14/2001	50
NYD980528475	CORTESE LANDFILL	SOUTH OF ROUTE 97	VIL OF NARROWSBURG	NY	12764	SULLIVAN	36105	-75.065	41.6005	Final	6/10/1986	32.11
NYD986965333	CROWN CLEANERS OF WATERTOWN INC.	3595 STATE ROUTE 3	CARTHAGE	NY	13619	JEFFERSON	36045	-75.6518	44.0229	Final	9/5/2002	49
NYD067532580	DIAZ CHEMICAL	40 JACKSON ST. AREA A	HOLLEY	NY	14470	ORLEANS	36073	-78.0292	43.2229	Final	7/22/2004	50
NYSFN0204190	ELLENVILLE SCRAP IRON AND METAL	34 CAPE ROAD	ELLENVILLE	NY	12428	ULSTER	36111	-74.4055	41.724	Final	9/5/2002	50.27
NYD980780746	ENDICOTT VILLAGE WELL FIELD	S. GRIPPEN AVENUE	VILLAGE OF ENDICOTT	NY	13760	BROOME	36007	-76.0861	42.0861	Final	6/10/1986	35.57
NYD073675514	"FACET ENTERPRISES, INC."	RTE 14	ELMIRA	NY	14903	CHEMUNG	36015	-76.8291	42.1325	Final	9/8/1983	46.67
NYD000511857	FMC CORP. (DUBLIN ROAD LANDFILL)	DUBLIN ROAD	TOWN OF SHELBY	NY	14103	ORLEANS	36073	-78.4417	43.2172	Final	6/10/1986	32.9
NYD981560923	FOREST GLEN MOBILE HOME SUBDIVISION	"LISA LANE, CARRIE DRIVE AND T. MARK DRV."	NIAGARA FALLS	NY	14301	NIAGARA	36063	-78.9995	43.1127	Final	11/21/1989	0
NY0000110247	FULTON AVENUE	150 FULTON AVENUE	NORTH HEMPSTEAD	NY	11040	NASSAU	36059	-73.6578	40.7373	Final	3/6/1998	33.08
NYD980593099	FULTON TERMINALS	RTE 57	FULTON	NY	13069	OSWEGO	36075	-76.4274	43.3569	Final	9/8/1983	36.5
NYD981566417	GCL TIE AND TREATING INC.	DELAWARE AVENUE	VILLAGE OF SIDNEY	NY	13838	DELAWARE	36025	-75.4133	42.3005	Final	5/31/1994	48.54
NYD980528335	GE MOREAU	FT EDWARD & WM ST	SOUTH GLENS FALLS	NY	12803	SARATOGA	36091	-73.6291	43.283	Final	9/8/1983	58.21
NYD091972554	GENERAL MOTORS (CENTRAL FOUNDRY DIVISION)	ROOSEVELT TOURIN ROAD	MASSENA	NY	13662	ST. LAWRENCE	36089	-74.7327	44.9838	Final	9/21/1984	40.71
NYD002050110	GENZALE PLATING CO.	288 NEW HYDE PARK ROAD	FRANKLIN SQUARE	NY	11010	NASSAU	36059	-73.6777	40.7153	Final	7/22/1987	33.79
NYD980768717	"GOLDISC RECORDINGS, INC."	725 BROADWAY	HOLBROOK	NY	11741	SUFFOLK	36103	-73.0647	40.7745	Final	6/10/1986	33.39
NY4571924451	GRIFFISS AIR FORCE BASE (11 AREAS)	GRIFFISS AIR FORCE BASE	ROME	NY	13440	ONEIDA	36065	-75.4166	43.2333	Final	7/22/1987	34.2
NYD980785661	HAVILAND COMPLEX	ROUTE 9G & HAVILAND ROAD	TOWN OF HYDE PARK	NY	12538	DUTCHESS	36027	-73.908	41.7711	Final	6/10/1986	33.62
NYD980780779	HERTEL LANDFILL	RTE 44/55 BEDELL AVE & TUCKERS	PLATTEKILL	NY	12568	ULSTER	36111	-74.0388	41.688	Final	6/10/1986	33.62
NYD981560915	HITEMAN LEATHER	173 SOUTH STREET	WEST WINFIELD	NY	13491	HERKIMER	36043	-75.1958	42.8833	Final	1/19/1999	50
NYD000831644	HOOKER (HYDE PARK)	HYDE PARK BLVD	NIAGARA FALLS	NY	14304	NIAGARA	36063	-79.0366	43.1311	Final	9/8/1983	34.77
NYD980651087	HOOKER (S AREA)	BUFFALO AVE	NIAGARA FALLS	NY	14303	NIAGARA	36063	-79.0054	43.0757	Final	9/8/1983	51.62
NYD002920312	HOOKER CHEMICAL & PLASTICS CORP./RUCO POLYMER CORP.	NEW SOUTH ROAD	HICKSVILLE	NY	11801	NASSAU	36059	-73.5041	40.7575	Final	6/10/1986	41.6
NYD066813064	HOPEWELL PRECISION	15 RYAN RD	HOPEWELL JUNCTION	NY	125338323	DUTCHESS	36027	-73.7814	41.6116	Final	4/27/2005	50
NYD980763841	HUDSON RIVER PCBS	NO STREET APPLICABLE	HUDSON RIVER	NY	12801	WASHINGTON	36115	-73.5765	43.1102	Final	9/21/1984	54.66
OHD043730217	ALLIED CHEMICAL & IRONTON COKE	3330 S 3RD ST	IRONTON	OH	45638	LAWRENCE	39087	-82.658	38.5057	Final	9/8/1983	47.05
OHN000510164	BEHR DAYTON THERMAL SYSTEM VOC PLUME	1600 WEBSTER ST	DAYTON	OH	45404	MONTGOMERY	39113	-84.1822	39.7826	Final	4/9/2009	50
OHD980611735	BIG D CAMPGROUND	3678 CREEK RD	KINGSVILLE	OH	44048	ASHTABULA	39007	-80.6527	41.9041	Final	9/8/1983	30.77
OHD980509657	BUCKEYE RECLAMATION	STATE ROUTE 214 1MI SOUTH OF I-90	ST. CLAIRSVILLE	OH	43950	BELMONT	39013	-80.8416	40.0472	Final	9/8/1983	35.1
OHD074727793	CHEM-DYNE	500 FORD BLVD	HAMILTON	OH	45011	BUTLER	39017	-84.552	39.4079	Final	9/8/1983	0
OH0000563122	COPLEY SQUARE PLAZA	2777 COPLEY ROAD	COPLEY	OH	44321	SUMMIT	39153	-81.6174	41.0928	Final	4/27/2005	50
OHD980509947	E.H. SCHILLING LANDFILL	RTE 52 & PATRIC RD	HAMILTON TOWNSHIP	OH	45695	LAWRENCE	39087	-82.7555	38.5725	Final	9/8/1983	34.56
OHSFN0507962	EAST TROY CONTAMINATED AQUIFER	EAST TROY ALONG WEST BANK OF MIAMI RIVER	TROY	OH	45373	MIAMI	39109	-84.1962	40.0381	Final	9/3/2008	50
OH6890008976	FEED MATERIALS PRODUCTION CENTER (USDOE)	2 MI W OF JUNCTION RT 128 & RT 126	FERNALD	OH	45030	"HAMILTON, BUTLER"	39061	-84.6883	39.2994	Final	11/21/1989	57.56
OHD980614572	FIELDS BROOK	WATER BED OF CREEK R3W T13N	ASHTABULA	OH	44004	ASHTABULA	39007	-80.7754	41.8915	Final	9/8/1983	44.95
OHD980794630	FULTZ LANDFILL	CO RD 52	JACKSON TOWNSHIP	OH	43723	GUERNSEY	39059	-81.5416	39.9847	Final	9/8/1983	39.42
OKD000400093	HARDAGE/CRINER	3/4 MI W OF TOWN ON HWY 122	CRINER	OK	73080	MCCLAIN	40087	-97.5809	34.9764	Final	9/8/1983	51.01
OKD082471988	HUDSON REFINERY	400 W MAIN ST	CUSHING	OK	74023	PAYNE	40119	-96.7797	35.9855	Final	7/22/1999	29.34
OK0002024099	IMPERIAL REFINING COMPANY	EAST OF REFINERY ROAD/S. HWY 42	ARDMORE	OK	73402	CARTER	40019	-97.1079	34.1954	Final	7/27/2000	30
ORN001002616	FORMOSA MINE	"T31 S R6W SEC23, WILLAMETTE MERIDIAN"	RIDDLE	OR	97463	DOUGLAS	41019	-123.3847	42.8517	Final	9/19/2007	50
OR7122307658	FREMONT NATIONAL FOREST/WHITE KING AND LUCKY LASS URANIUM MINES (USDA)	524 N G STREET	LAKEVIEW	OR	97630	LAKE	41037	-120.5416	42.3361	Final	4/25/1995	50
ORD071803985	HARBOR OIL INC.	AKA CHEMPRO OF OREGON INC	PORTLAND	OR	97217	MULTNOMAH	41051	-122.6913	45.6063	Final	9/29/2003	48
PAD004351003	A.I.W. FRANK/MID-COUNTY MUSTANG	INT RTE 202 & RTE 30	EXTON	PA	19341	CHESTER	42029	-75.6032	40.0318	Final	10/4/1989	42.4
PAD003053709	AVCO LYCOMING (WILLIAMSPORT DIVISION)	652 OLIVER ST	WILLIAMSPORT	PA	17701	LYCOMING	42081	-77.0411	41.244	Final	2/21/1990	42.24
PAD061105128	BALLY GROUND WATER CONTAMINATION	ROUTE 100 20 N THIRD STREET	BALLY	PA	19503	BERKS	42011	-75.5933	40.3984	Final	7/22/1987	37.93
PAD980705107	BELL LANDFILL	TWP RTE 393	TERRY TOWNSHIP	PA	18853	BRADFORD	42015	-76.3891	41.633	Final	10/4/1989	34.79
PAD003047974	BENDIX FLIGHT SYSTEMS DIVISION	MONTROSE PLT	SOUTH MONTROSE	PA	18843	SUSQUEHANNA	42115	-75.8862	41.7973	Final	7/22/1987	33.74
PAD980691794	BERKS SAND PIT	UNOBTAINABLE	LONGSWAMP TOWNSHIP	PA	19539	BERKS	42011	-75.6273	40.4646	Final	9/21/1984	32.02
PAD980539985	BLOSENSKI LANDFILL	ROUTE 340	WEST CALN TOWNSHIP	PA	19376	CHESTER	42029	-75.9105	40.02	Final	9/8/1983	30.57
PAD047726161	BOARHEAD FARMS	LONELY COTTAGE DRIVE	BRIDGETON TOWNSHIP	PA	18972	BUCKS	42017	-75.125	40.5458	Final	3/31/1989	39.92
PAD981034887	BORIT ASBESTOS	6 MAPLE STREET	AMBLER	PA	19002	MONTGOMERY	42091	-75.2286	40.1533	Final	4/9/2009	50
PAD089667695	"BRESLUBE-PENN, INC."	84 MONTOUR RD	CORAOPOLIS	PA	15108	ALLEGHENY	42003	-80.1463	40.5013	Final	6/17/1996	50
PAD980831812	BROWN'S BATTERY BREAKING	446 FISHER DAM RD	HAMBURG	PA	19526	BERKS	42011	-76.0013	40.5194	Final	6/10/1986	37.34
PAD980508451	BUTLER MINE TUNNEL	SUSQUEHANNA RIVER	PITTSTON TOWNSHIP	PA	18640	LUZERNE	42079	-75.7899	41.3268	Final	7/22/1987	49.51
PAD981034705	BUTZ LANDFILL	RD #5 TWP RTE 601	STROUDSBURG	PA	18360	MONROE	42089	-75.3438	41.0335	Final	3/31/1989	32
PAD021449244	C & D RECYCLING	R.D. #1 - SANDY RUN	FOSTER TOWNSHIP	PA	18224	LUZERNE	42079	-75.8416	41.0313	Final	7/22/1987	43.92
PAD000436261	CENTRE COUNTY KEPONE	201 STRUBLE ROAD	STATE COLLEGE BOROUGH	PA	16801	CENTRE	42027	-77.8083	40.8236	Final	9/8/1983	45.09
PAD002323848	CHEM-FAB	300 NORTH BROAD STREET	Doylestown	PA	18901	BUCKS	42017	-75.13	40.4	Final	3/19/2008	50
PAD093730174	COMMODORE SEMICONDUCTOR GROUP	VAN BUREN & RITTENHOUSE RDS	LOWER PROVIDENCE TOWNSHIP	PA	19403	MONTGOMERY	42091	-75.4194	40.1241	Final	10/4/1989	42.35
PAD980508527	CRAIG FARM DRUM	SR 4001	PARKER	PA	16049	ARMSTRONG	42005	-79.6825	41.0446	Final	9/8/1983	28.72
PAD980419097	"CRATER RESOURCES, INC./KEYSTONE COKE CO./ALAN WOOD STEEL CO."	2200 RENAISSANCE BOULEVARD	UPPER MERION TOWNSHIP	PA	19406	MONTGOMERY	42091	-75.3425	40.0816	Final	10/14/1992	50
PAD981740061	CROSSLEY FARM	HUFF'S CHURCH ROAD & BLACKHEAD HILL	HEREFORD TOWNSHIP	PA	18056	BERKS	42011	-75.6206	40.4354	Final	10/14/1992	29.66
PAD981035009	CROYDON TCE	RIVER ROAD	CROYDON TOWNSHIP	PA	19020	BUCKS	42017	-74.8892	40.0849	Final	6/10/1986	31.6
PAD002360444	"CRYOCHEM, INC."	ROUTE 562	WORMAN TOWNSHIP	PA	19512	BERKS	42011	-75.6916	40.3172	Final	10/4/1989	28.58
PAD981038052	"DELTA QUARRIES & DISPOSAL, INC./STOTLER LANDFILL"	SAND BANK RD	ANTIS/LOGAN TWPS	PA	16602	BLAIR	42013	-78.3544	40.5536	Final	3/31/1989	41.08
PAD980508832	DORNEY ROAD LANDFILL	DORNEY RD	UPPER MACUNGIE TOWNSHIP	PA	19539	LEHIGH	42077	-75.6541	40.5277	Final	9/21/1984	46.1
PAD002384865	DOUGLASSVILLE DISPOSAL	RTE 724	DOUGLASSVILLE	PA	19518	BERKS	42011	-75.7352	40.2575	Final	9/8/1983	55.18
PAD003058047	DRAKE CHEMICAL	180 MYRTLE ST	LOCK HAVEN	PA	17745	CLINTON	42035	-77.4436	41.1291	Final	9/8/1983	38.52
PAD981740004	DUBLIN TCE SITE	120 MILL ST./ WHISTLEWOOD APT-ROUTE 313	DUBLIN BOROUGH	PA	18917	BUCKS	42017	-75.2048	40.3708	Final	8/30/1990	28.9
PAD980690549	EAST MOUNT ZION	DIENINGER ROAD	SPRINGETTSBURY TOWNSHIP	PA	17402	YORK	42133	-76.6652	40.0075	Final	9/21/1984	41.01
PAD980830533	EASTERN DIVERSIFIED METALS	LINCOLN AVENUE	HOMETOWN	PA	18252	SCHUYLKILL	42107	-75.9975	40.8294	Final	10/4/1989	31.02
PAD980539712	ELIZABETHTOWN LANDFILL	W RIDGE RD	ELIZABETHTOWN	PA	17022	LANCASTER	42071	-76.6081	40.1327	Final	3/31/1989	28.98
PAD002345817	FISCHER & PORTER CO.	JACKSONVILLE & ST RD	WARMINSTER	PA	18974	BUCKS	42017	-75.0925	40.1838	Final	9/8/1983	29.07
PAD077087989	FOOTE MINERAL CO.	15 S BACTON HILL RD	EAST WHITELAND TOWNSHIP	PA	19355	CHESTER	42029	-75.5852	40.04	Final	10/14/1992	50
PASFN0305549	FRANKLIN SLAG PILE (MDC)	3110 CASTOR AVENUE	PHILADELPHIA	PA	19134	PHILADELPHIA	42101	-75.0838	39.9831	Final	9/5/2002	50.2
PAD002338010	HAVERTOWN PCP	EAGLE ROAD RC DRAWER F	HAVERFORD	PA	19083	DELAWARE	42045	-75.3186	39.9827	Final	9/8/1983	38.34
PAD980537716	HELEVA LANDFILL	GARAGE HILL ST	NORTH WHITEHALL TWP	PA	18037	LEHIGH	42077	-75.5625	40.6708	Final	9/8/1983	50.23
PAD002390748	HELLERTOWN MANUFACTURING CO.	1770 MAIN ST	HELLERTOWN	PA	18055	NORTHAMPTON	42095	-75.3409	40.5954	Final	3/31/1989	51.91
PAD009862939	HENDERSON ROAD	372 S HENDERSON ROAD	UPPER MERION TOWNSHIP	PA	19406	MONTGOMERY	42091	-75.3555	40.0869	Final	9/21/1984	41.69
PAD980830897	HUNTERSTOWN ROAD	RD #5	STRABAN TOWNSHIP	PA	17325	ADAMS	42001	-77.2061	39.853	Final	6/10/1986	48.27
PRN000204694	ATLANTIC FLEET WEAPONS TRAINING AREA		VIEQUES	PR	765	VIEQUES	72147	-65.3106	18.1305	Final	2/11/2005	0
PRD980509129	BARCELONETA LANDFILL	"ROAD # 666,FLORIDA AFUERA WARD"	FLORIDA AFUERA	PR	617	FLORIDA MUNICIPALITY		-66.5477	18.4105	Final	9/8/1983	41.11
PRN000204538	CIDRA GROUNDWATER CONTAMINATION	ROAD 171 (SOUTH OF THE VILLAGE OF CIDRA	CIDRA	PR	8750	CIDRA	72041	-66.1619	18.1752	Final	7/22/2004	50
PRD980763783	FIBERS PUBLIC SUPPLY WELLS	RTE 3	JOBOS	PR	654	GUAYAMA MUNICIPALITY		-66.1461	17.9632	Final	9/21/1984	35.34
RID980520183	CENTRAL LANDFILL	65 SHUN PIKE	JOHNSTON	RI	29194512	PROVIDENCE	44007	-71.5347	41.8083	Final	6/10/1986	46.71
RID981203755	CENTREDALE MANOR RESTORATION PROJECT	2072 AND 2074 SMITH STREET (ROUTE 44)	NORTH PROVIDENCE	RI	2911	PROVIDENCE	44007	-71.4872	41.8576	Final	2/4/2000	70.71
RID980523070	DAVIS LIQUID WASTE	TARKILN RD	SMITHFIELD	RI	2828	PROVIDENCE	44007	-71.5777	41.9222	Final	9/8/1983	47.25
RI6170022036	DAVISVILLE NAVAL CONSTRUCTION BATTALION CENTER	OFF SANFORD RD.	NORTH KINGSTOWN	RI	2818	WASHINGTON	44009	-71.4742	41.6095	Final	11/21/1989	34.52
SCD058754789	AQUA-TECH ENVIRONMENTAL INC (GROCE LABS)	340 ROBINSON ROAD	GREER	SC	29651	SPARTANBURG	45083	-82.1725	34.9328	Final	12/16/1994	50
SCN000407714	BARITE HILL/NEVADA GOLDFIELDS	NORTHERN SIDE OF SECONDARY HWY S-33-30	MCCORMICK	SC	29835	MCCORMICK	45065	-82.2972	33.8711	Final	4/9/2009	50
SCD000447268	BEAUNIT CORP. (CIRCULAR KNIT & DYEING PLANT)	206 GEORGIA AVE	FOUNTAIN INN	SC	29644	GREENVILLE	45045	-82.2161	34.698	Final	2/21/1990	32.44
SCD987577913	BREWER GOLD MINE	1/2 MI. N.OFINTERSECTION OF SR 265&CR110	JEFFERSON	SC	29718	CHESTERFIELD	45025	-80.4114	34.6521	Final	4/27/2005	50
SCD980558316	"CAROLAWN, INC."	S. OF SC HWY 9 ON CO. RD 841	FORT LAWN	SC	29714	CHESTER	45023	-80.943	34.6861	Final	9/8/1983	32.04
SCD980839542	ELMORE WASTE DISPOSAL	117 HIGHLAND AVE	GREER	SC	29651	SPARTANBURG	45083	-82.2165	34.9359	Final	3/31/1989	31.45
SCD980711279	GEIGER (C & M OIL)	OFF SC RT 162	RANTOULES	SC	29494	CHARLESTON	45019	-80.1591	32.7736	Final	9/21/1984	32.25
SCD058753971	HELENA CHEMICAL CO. LANDFILL	HWY 321 S	FAIRFAX	SC	29829	ALLENDALE	45005	-81.239	32.9412	Final	2/21/1990	33.89
SD2571924644	ELLSWORTH AIR FORCE BASE	44CSC/DE	ELLSWORTH AFB	SD	57706	"MEADE, PENNINGTON"	46093	-103.0958	44.148	Final	8/30/1990	33.62
SDD987673985	GILT EDGE MINE	4 MILES SE OF LEAD	LEAD	SD	57754	LAWRENCE	46081	-103.6743	44.328	Final	12/1/2000	50
TND007018799	"AMERICAN CREOSOTE WORKS, INC. (JACKSON PLANT)"	MEADOW ST	JACKSON	TN	38301	MADISON	47113	-88.8355	35.61	Final	6/10/1986	35.22
TND980468557	ARLINGTON BLENDING & PACKAGING	12121 HWY 70	ARLINGTON	TN	38002	SHELBY	47157	-89.6577	35.2996	Final	7/22/1987	39.03
TND044062222	CARRIER AIR CONDITIONING CO.	97 S BYHALIA RD	COLLIERVILLE	TN	38017	SHELBY	47157	-89.6904	35.0433	Final	2/21/1990	48.91
TX7572024605	AIR FORCE PLANT #4 (GENERAL DYNAMICS)	GRANTS LANE	FORT WORTH	TX	76108	TARRANT	48439	-97.45	32.7777	Final	8/30/1990	39.92
TXD008123168	ALCOA (POINT COMFORT)/LAVACA BAY		POINT COMFORT	TX	77979	CALHOUN	48057	-96.5622	28.6508	Final	2/23/1994	50
TXN000606760	ATTEBURY GRAIN STORAGE FACILITY	201 NORTH GORDON STREET	Happy	TX	79042	SWISHER	48437	-101.8533	34.745	Final	4/9/2009	32.33
TXN000606565	BANDERA ROAD GROUND WATER PLUME	INTERSECTION OF BANDERA ROAD AND	SAN ANTONIO	TX	78238		48029	-98.6205	29.4944	Final	3/7/2007	50
TX0000605264	BRINE SERVICE COMPANY	NORTHEAST OF INTERSECTION AT IH-37 AND	CORPUS CHRISTI	TX	78409	NUECES	48355	-97.5086	27.8153	Final	9/5/2002	50
TX0001399435	CITY OF PERRYTON WELL NO. 2	NORTH AMHERST STREET AND SANTA FE AVENUE	PERRYTON	TX	79070	OCHILTREE	48357	-100.8047	36.4005	Final	1/19/1999	50
TXD008091951	CONROE CREOSOTING CO.	"HIGHWAY 105 EAST, BOX 9"	CONROE	TX	77301	MONTGOMERY	48339	-95.4354	30.3187	Final	9/29/2003	48
TXD990707010	CRYSTAL CHEMICAL CO.	3502 ROGERDALE RD	HOUSTON	TX	77042	HARRIS	48201	-95.5644	29.7206	Final	9/8/1983	60.9
TX0000605363	DONNA RESERVOIR AND CANAL SYSTEM	"SOUTH TEXAS, NORTH OF RIO GRANDE RIVER"	Donna	TX	78537	HIDALGO	48215	-98.0863	26.1122	Final	3/19/2008	50
TXN000606614	EAST 67TH STREET GROUND WATER PLUME	"102 23', 23.36"" WEST, 31, 54', 22.26"""	ODESSA	TX	79762	ECTOR	48135	-102.3858	31.9086	Final	3/7/2007	50
TXD980514814	"FRENCH, LTD."	SAN JACINTO RIVER CROSSING	CROSBY	TX	77532	HARRIS	48201	-95.0739	29.8796	Final	9/8/1983	63.33
TXD007330053	GARLAND CREOSOTING	3915 GARLAND ROAD	LONGVIEW	TX	75602	GREGG	48183	-94.7109	32.4422	Final	10/22/1999	49.1
TXD980748453	GENEVA INDUSTRIES/FUHRMANN ENERGY	9334 CANIFF RD	HOUSTON	TX	77017	HARRIS	48201	-95.25	29.66	Final	9/21/1984	59.46
TXD055144539	GULFCO MARINE MAINTENANCE	BRAZORIA COUNTY RD 756	FREEPORT	TX	77541	BRAZORIA	48039	-95.2896	28.9668	Final	4/30/2003	50
TXD050299577	HART CREOSOTING COMPANY	STATE HIGHWAY 96	JASPER	TX	75951	JASPER	48241	-93.9952	30.8936	Final	7/22/1999	48
TXD980514996	HIGHLANDS ACID PIT	611 BATTLEBELL - CLEAR LAKE ROAD	HIGHLANDS	TX	77562	HARRIS	48201	-95.0786	29.8141	Final	9/8/1983	37.77
UT0001119296	BOUNTIFUL/WOODS CROSS 5TH S. PCE PLUME	"500 SOUTH 800 WEST, BOUNTIFUL/WOODS CROS"	BOUNTIFUL	UT	84010	DAVIS	49011	-111.9038	40.8872	Final	9/13/2001	50
UTD988075719	DAVENPORT AND FLAGSTAFF SMELTERS	1 MILE W OF INTERSECTION USH 209 AND 210	SANDY	UT	84092	SALT LAKE	49035	-111.7919	40.5736	Final	4/30/2003	32.5
UT0002240158	EUREKA MILLS	1.25 MI W OF THE UTAH-JUAB COUNTY LINE	EUREKA	UT	84628	JUAB	49023	-112.1155	39.9555	Final	9/5/2002	50
UTN000802654	FIVE POINTS PCE PLUME	APPROX. 1500 SOUTH & STATE HIGHWAY 106	WOODS CROSS/BOUNTIFUL	UT	84010	DAVIS	49011	-111.8858	40.8745	Final	9/19/2007	50
UT0571724350	HILL AIR FORCE BASE	00-ALC/EM	HILL AFB	UT	84056	"DAVIS, WEBER"	49011	-111.955	41.1283	Final	7/22/1987	49.94
VAD980551683	ABEX CORP.	RANDOLPH + GREEN ST	PORTSMOUTH	VA	23704	PORTSMOUTH CITY	51740	-76.3045	36.8265	Final	8/30/1990	36.53
VAD042916361	"ARROWHEAD ASSOCIATES, INC./SCOVILL CORP."	RTE 3	MONTROSS	VA	22520	WESTMORELAND	51193	-76.7911	38.0866	Final	2/21/1990	37.15
VAD990710410	"ATLANTIC WOOD INDUSTRIES, INC."	3950 ELM ST	PORTSMOUTH	VA	23704	PORTSMOUTH CITY	51740	-76.299	36.8065	Final	2/21/1990	37.14
VAD070358684	"AVTEX FIBERS, INC."	BOX 1169 KENDRICK LN	FRONT ROYAL	VA	22630	WARREN	51187	-78.2116	38.9255	Final	6/10/1986	35.39
VAD089027973	BUCKINGHAM COUNTY LANDFILL	ST RTE 640 W OF US RTE 15	BUCKINGHAM	VA	23936	BUCKINGHAM	51029	-78.5166	37.5141	Final	10/4/1989	40.7
VAD049957913	"C & R BATTERY CO., INC."	1320 BELLWOOD RD	CHESTERFIELD COUNTY	VA	23237	CHESTERFIELD	51041	-77.415	37.418	Final	7/22/1987	46.44
VAD980712913	CHISMAN CREEK	WOLF TRAP RD	YORK COUNTY	VA	23692	YORK	51199	-76.4631	37.177	Final	9/8/1983	47.19
VAD059165282	"CULPEPER WOOD PRESERVERS, INC."	RTE 666	CULPEPER	VA	22701	CULPEPER	51047	-77.96	38.4833	Final	10/4/1989	45.91
VA3971520751	DEFENSE GENERAL SUPPLY CENTER (DLA)	JEFFERSON DAVIS HGY	CHESTERFIELD COUNTY	VA	23237	CHESTERFIELD	51041	-77.4485	37.4189	Final	7/22/1987	33.85
VAD980554984	FIRST PIEDMONT CORP. ROCK QUARRY (ROUTE 719)	RTE 360 STATE RD 719	PITTSYLVANIA COUNTY	VA	24531	PITTSYLVANIA	51143	-79.3486	36.6658	Final	7/22/1987	30.16
VAD123933426	FORMER NANSEMOND ORDNANCE DEPOT	STATE ROUTE 135	SUFFOLK	VA	23435	SUFFOLK CITY	51800	-76.4347	36.8997	Final	7/22/1999	70.71
VA6210020321	FORT EUSTIS (US ARMY)	END OF MULBERRY ISLAND	NEWPORT NEWS	VA	23604	NEWPORT NEWS CITY	51700	-76.5683	37.105	Final	12/16/1994	50
VAD003125374	GREENWOOD CHEMICAL CO.	PO BOX 26 OFF STATE RTE 690	NEWTOWN	VA	22943	ALBEMARLE	51003	-78.7863	38.0447	Final	7/22/1987	53.17
VAD980539878	"H & H INC., BURN PIT"	10 MILES N RTE 33	FARRINGTON	VA	23192	HANOVER	51085	-77.5857	37.7243	Final	3/31/1989	33.71
VAD980829030	HIDDEN LANE LANDFILL	"OFF OF PERSIMMON LN, ~3/4 MILE N OF RT 7"	Sterling	VA	21065	LOUDOUN	51107	-77.4255	39.0535	Final	3/19/2008	50
VTD981064223	BENNINGTON MUNICIPAL SANITARY LANDFILL	OFF HOUGHTON LANE	BENNINGTON	VT	5201	BENNINGTON	50003	-73.1977	42.9222	Final	3/31/1989	49.07
VTD980520092	BFI SANITARY LANDFILL (ROCKINGHAM)	RTE 5	ROCKINGHAM	VT	5101	WINDHAM	50025	-72.4397	43.2263	Final	10/4/1989	41.92
VTD003965415	BURGESS BROTHERS LANDFILL	RTE 9	WOODFORD	VT	5201	BENNINGTON	50003	-73.1501	42.878	Final	3/31/1989	52.58
VTD098352545	COMMERCE STREET PLUME	15 COMMERCE AVENUE	WILLISTON	VT	5495	CHITTENDEN	50007	-73.1213	44.4525	Final	4/27/2005	48.48
VTD988366621	ELIZABETH MINE	MINE ROAD	STRAFFORD	VT	5070	ORANGE	50017	-72.3288	43.8238	Final	6/14/2001	50
VTD988366571	ELY COPPER MINE	TOWN HIGHWAY 38	VERSHIRE	VT	5079	ORANGE	50017	-72.2855	43.9274	Final	9/13/2001	50
WAD057311094	AMERICAN CROSSARM & CONDUIT CO.	99 CHEHALIS AV SW	CHEHALIS	WA	98532	LEWIS	53041	-122.9689	46.6569	Final	10/4/1989	30.44
WAD980833065	AMERICAN LAKE GARDENS/MCCHORD AFB	555 BARNES BLVD.	TACOMA	WA	98438	PIERCE	53053	-122.5267	47.125	Final	9/21/1984	28.9
WA5170027291	BANGOR NAVAL SUBMARINE BASE	"CLEAR CREEK ROAD, BLDG. 110"	SILVERDALE	WA	98315	KITSAP	53035	-122.7131	47.699	Final	8/30/1990	55.91
WA7170027265	BANGOR ORDNANCE DISPOSAL (USNAVY)	"CLEAR CREEK ROAD,BLDG 1100"	BREMERTON	WA	98315	KITSAP	53035	-122.7008	47.7647	Final	7/22/1987	30.42
WAD009624453	BOOMSNUB/AIRCO	7608 NORTHEAST 47TH STREET	VANCOUVER	WA	98661	CLARK	53011	-122.6216	45.6772	Final	4/25/1995	0
WAD980836662	CENTRALIA MUNICIPAL LANDFILL	1313 S TOWER	CENTRALIA	WA	98531	LEWIS	53041	-122.9633	46.6966	Final	8/30/1990	36.36
WAD980514541	COLBERT LANDFILL	ELK-CHATTEROY RD	SPOKANE	WA	99005	SPOKANE	53063	-117.3483	47.8616	Final	9/8/1983	41.59
WAD980726368	"COMMENCEMENT BAY, NEAR SHORE/TIDE FLATS"	ADJ TO RUSTON WAY & TIDEFLATS IND. AREA	TACOMA	WA	98421	PIERCE	53053	-122.4166	47.2666	Final	9/8/1983	42.2
WAD980726301	"COMMENCEMENT BAY, SOUTH TACOMA CHANNEL"	SOUTH TACOMA CHANNEL OF COMMEN	TACOMA	WA	98402	PIERCE	53053	-122.4714	47.2294	Final	9/8/1983	54.63
WA9571924647	FAIRCHILD AIR FORCE BASE (4 WASTE AREAS)	US HIGHWAY 2 W OF SPOKANE	SPOKANE	WA	99011	SPOKANE	53063	-117.6462	47.6283	Final	3/13/1989	31.98
WAD000643577	FMC CORP. (YAKIMA PIT)	4 W WASHINGTON AV	YAKIMA	WA	98903	YAKIMA	53077	-120.4933	46.5666	Final	9/8/1983	38.8
WA7210090067	FORT LEWIS LOGISTICS CENTER	"T19N R2E SECS 21,22,26,27"	TILLICUM	WA	98433	PIERCE	53053	-122.5365	47.1142	Final	11/21/1989	35.48
WAD053614988	"FRONTIER HARD CHROME, INC."	113 Y ST	VANCOUVER	WA	98661	CLARK	53011	-122.644	45.6215	Final	9/8/1983	57.93
WAD001865450	GENERAL ELECTRIC CO. (SPOKANE APPARATUS SERVICE SHOP)	E 4323 MISSION AV	SPOKANE	WA	99211	SPOKANE	53063	-117.3441	47.6729	Final	10/4/1989	57.8
WAD980514608	GREENACRES LANDFILL	LIBERTY LK	SPOKANE COUNTY	WA	99019	SPOKANE	53063	-117.1169	47.6627	Final	9/21/1984	28.9
WASFN1002174	HAMILTON/LABREE ROADS GW CONTAMINATION	HAMILTON & LABREE ROADS	CHEHALIS	WA	98532	LEWIS	53041	-122.933	46.6234	Final	7/27/2000	37.65
WA3890090076	HANFORD 100-AREA (USDOE)	100 AREA	BENTON COUNTY	WA	99352	BENTON	53005	-119.4829	46.7011	Final	10/4/1989	46.38
WA1890090078	HANFORD 200-AREA (USDOE)	200 AREA	BENTON COUNTY	WA	99352	BENTON	53005	-119.6049	46.5633	Final	10/4/1989	69.05
WA2890090077	HANFORD 300-AREA (USDOE)	300 AREA	BENTON COUNTY	WA	99352	BENTON	53005	-119.2752	46.3703	Final	10/4/1989	65.23
WAD980722839	HARBOR ISLAND (LEAD)	MOUTH OF DUWAMISH RIVER	SEATTLE	WA	98134	KING	53033	-122.3522	47.5794	Final	9/8/1983	34.6
WAD980511539	HIDDEN VALLEY LANDFILL (THUN FIELD)	THUN FLD 17975 MERIDIAN S	PIERCE COUNTY	WA	98371	PIERCE	53053	-122.2878	47.095	Final	3/31/1989	37.93
WID980610380	ALGOMA MUNICIPAL LANDFILL	SEC32 T25N R25E TOWN OF AHNAPEE	ALGOMA	WI	54201	KEWAUNEE	55061	-87.4912	44.597	Final	7/22/1987	39.99
WIN000510210	AMCAST INDUSTRIAL CORPORATION	N39 W5789 HAMILTON ROAD	CEDARBURG	WI	53012	OZAUKEE	55089	-87.9819	43.2894	Final	9/23/2009	46.86
WISFN0507952	ASHLAND/NORTHERN STATES POWER LAKEFRONT	300 ST. CLAIRE ST.	ASHLAND	WI	54806	ASHLAND	55003	-90.8833	46.5959	Final	9/5/2002	50
WIT560010118	BETTER BRITE PLATING CO. CHROME AND ZINC SHOPS	519 LANDE ST	DE PERE	WI	54115	BROWN	55009	-88.0755	44.438	Final	8/30/1990	48.91
WID980610646	CITY DISPOSAL CORP. LANDFILL	SAND HILL RD	DUNN	WI	53575	DANE	55025	-89.3569	42.9463	Final	9/21/1984	36.84
WID980820062	DELAVAN MUNICIPAL WELL #4	SOUTH WRIGHT STREET	DELAVAN	WI	53115	WALWORTH	55127	-88.6238	42.6316	Final	9/21/1984	28.9
WID980820054	EAU CLAIRE MUNICIPAL WELL FIELD	SEC5 T27N R9W	EAU CLAIRE	WI	54701	EAU CLAIRE	55035	-91.5033	44.8533	Final	9/21/1984	35.57
WID980610059	HAGEN FARM	2318 COUNTY TRUNK HIGHWAY A	STOUGHTON	WI	53589	DANE	55025	-89.1832	42.9089	Final	7/22/1987	32.06
WID052906088	HECHIMOVICH SANITARY LANDFILL	EAST END OF RAASCH HILL ROAD	WILLIAMSTOWN	WI	53032	DODGE	55027	-88.5541	43.4595	Final	3/31/1989	47.91
WID980511919	HUNTS DISPOSAL LANDFILL	CO LINE RD & FOLEY RD	CALEDONIA	WI	53108	RACINE	55101	-87.88	42.835	Final	7/22/1987	31.02
WV0170023691	ALLEGANY BALLISTICS LABORATORY (USNAVY)	COUNTY RTE 9	MINERAL COUNTY	WV	26753	MINERAL	54057	-78.8436	39.5609	Final	5/31/1994	50
WVD054827944	BIG JOHN SALVAGE - HOULT ROAD	HOULT ROAD	FAIRMONT	WV	26554	MARION	54049	-80.123	39.4972	Final	7/27/2000	48.57
WVD047989207	"FIKE CHEMICAL, INC."	W 19TH ST	NITRO	WV	25143	PUTNAM	54079	-81.8425	38.4266	Final	9/8/1983	36.3
WVD024185373	HANLIN-ALLIED-OLIN	STATE ROUTE 2	MOUNDSVILLE	WV	26041	MARSHALL	54051	-80.8013	39.9066	Final	7/22/1999	53.98
WY5571924179	F.E. WARREN AIR FORCE BASE	I-25 AND RANDALL AVENUE	CHEYENNE	WY	82005	LARAMIE	56021	-104.8622	41.1566	Final	2/21/1990	39.23
